venue_name,address_line,town,postcode,lat,lng
10is Academy Ely Tennis Club,King's Ely Barton Road Ely United Kingdom,Cambridge,CB7 4DB,52.395961,0.260478
1st East Wickham,Upper Wickham Lane WELLING United Kingdom,London,DA16 3AP,51.471043,0.11096
21st Walthamstow Scouts,Winchester Road  United Kingdom,London,E4 9JR,51.604516,-0.004278
2nd Cramlington Scout Group,Cobden Road CRAMLINGTON United Kingdom,Newcastle,NE23 6HQ,55.076203,-1.575686
3Tenn Bushey,"King George Recreation Ground, King George Avenue BUSHEY United Kingdom",London,WD23 4NT,51.643801,-0.355377
3Tenn Herts and Parks,"Goffs Sports and Arts Centre, Goffs School Goffs Lane, Cheshunt WALTHAM CROSS United Kingdom",London,EN7 5QW,51.706078,-0.057865
A690 Youth Initiative (St Oswald’s Church,"St. Oswalds Church, Gladwyn Road , SUNDERLAND United Kingdom",Newcastle,SR4 9QY,54.887879,-1.444068
Abbey Fields,Bridge Street KENILWORTH United Kingdom,Birmingham,CV8 1BP,52.34892,-1.579567
Abbey Green,"Court, Grendon Road Polesworth TAMWORTH United Kingdom",Birmingham,B78 1HD,52.616175,-1.613262
Abbey Wood Tennis Club,"Sporting Club Thamesmead, Bayliss Avenue ,  United Kingdom",London,SE28 8NJ,51.506868,0.128526
Abbeydale Tennis Club,"Abbeydale Road South, Dore  United Kingdom",Sheffield,S17 3LJ,53.325255,-1.520834
Abbeylands Welfare Park Tennis Courts,15 Bryans Road Newtongrange United Kingdom,Edinburgh,EH22 4SA,55.870857,-3.061837
Abbots Langley Lawn Tennis Club,"Manor House Sports & Social Centre, Gallows Hill Lane , ABBOTS LANGLEY United Kingdom",London,WD5 0DD,51.702137,-0.42788
Abbotsfield Park,Chassen Rd Urmston  United Kingdom,Manchester,M41 5DH,53.447408,-2.37014
Abbotts Park,"9  Road ,  United Kingdom",London,E10 6HT,51.571892,-0.006933
Abercorn Sports Club,12A Abercorn Crescent  United Kingdom,Edinburgh,EH8 7HZ,55.951092,-3.144647
Abercrombie Primary School,"Higher Albert Street , CHESTERFIELD United Kingdom",Sheffield,S41 7QE,53.242956,-1.429431
Aberdeen Tennis Centre,Tennis Centre Westburn Park  United Kingdom,Aberdeen,AB25 3DE,57.154237,-2.124506
Aberdeen Tennis Centre (NERO),Tennis Centre (NERO) Westburn Road  United Kingdom,Aberdeen,AB25 3DE,57.154237,-2.124506
Aberdour LTC,Park Lane BURNTISLAND United Kingdom,Edinburgh,KY3 0TN,56.05278,-3.302088
Abshot Country Club,Little Abshot Road Titchfield Common FAREHAM United Kingdom,Southampton,PO14 4LN,50.848228,-1.268106
Absolute Tennis,Knightwood Leisure Centre Skys Wood Road EASTLEIGH United Kingdom,Southampton,SO53 4SJ,50.98022,-1.402129
AC Tennis,"Barking Abbey School Leisure Centre, Woodbridge Road BARKING United Kingdom",London,IG11 9AG,51.543668,0.102522
Accessible Tennis CIC,"c/o Brett Nicholls Associates, Herbert House, 24 Herbert Street  United Kingdom",Glasgow,G20 6NB,55.87532,-4.274488
Ace Tennis,"Havant Academy, Wakefords Way HAVANT United Kingdom",Southampton,PO9 5JD,50.876369,-0.970514
Ace Tennis Club,Stuntney Estate Ely ELY United Kingdom,Cambridge,CB7 5TR,52.373557,0.292493
Ackworth Tennis Club,"Ackworth School, Pontefract Road, Ackworth PONTEFRACT United Kingdom",Leeds,WF7 7LT,53.649554,-1.334991
Acle Tennis Club,"Bridewell Lane, Acle  United Kingdom",Norwich,NR13 3RA,52.640937,1.548804
Acorn Lawn Tennis Club,"Arnold House Activity Centre, 44 Donnefield Avenue Edgware EDGWARE United Kingdom",London,HA8 6RH,51.608946,-0.293626
Acorns Nursery,"Chertsey Road , SUNBURY-ON-THAMES United Kingdom",London,TW16 7LN,51.427683,-0.431247
Action Tennis Club,10 Quarry Street  United Kingdom,Liverpool,L25 6HE,53.374793,-2.871986
Active Academy Tennis Bishop's Waltham,"Hoe Road Recreation Ground, Bishops Waltham  United Kingdom",Southampton,SO32 1DU,50.953501,-1.200135
Active Academy Tennis Fareham,Cams Hill School Shearwater Avenue FAREHAM United Kingdom,Southampton,PO16 8AH,50.850442,-1.158927
Active Academy Tennis University of Winchester,"The University of Winchester, Sparkford Road , WINCHESTER United Kingdom",Southampton,SO22 4NR,51.059996,-1.326729
Active Living Centre,Newport High School Bettws NEWPORT United Kingdom,Cardiff,NP20 7YB,51.606884,-3.014868
Activity for All,"Maguire Avenue, Bootle , BOOTLE United Kingdom",Liverpool,L20 9PQ,53.453402,-2.973016
Acton Bridge Tennis Club,"45 Cliff Road ,Acton Bridge NORTHWICH United Kingdom",Liverpool,CW8 3QY,53.275692,-2.609643
Acton Park,"East Churchfield Road ,  United Kingdom",London,W3 8EE,51.506767,-0.277778
Acton Turville Tennis Club,Playing Field Littleton Drew Lane Acton Turville BADMINTON United Kingdom,Bristol,GL9 1HJ,51.526096,-2.270665
AD Tennis Parkside,"Parkside School, The Manor  D'Abernon COBHAM United Kingdom",Stoke,KT11 3PX,51.314501,-0.381572
Adaptive 10is,Stuntney Estate Ely United Kingdom,Cambridge,CB7 5TR,52.373557,0.292493
Adastra Park,Keymer Road HASSOCKS United Kingdom,Brighton,BN6 8QH,50.924013,-0.137839
Addiscombe Rec Ground,"Bingham Rd, Addiscombe CROYDON United Kingdom",London,CR0 7HR,51.377692,-0.069238
Adel Tennis Club ( A Section of Adel WMA),"Adel Memorial Hall, Church Lane  United Kingdom",Leeds,LS16 8DE,53.855552,-1.587232
AEGON Staff Tennis Club,"c/o Sophie Ashcroft, Media Relations AEGON UK, Lochside Crescent  United Kingdom",Edinburgh,EH12 9SE,55.93519,-3.314484
AELTC Community Sports Ground,216 Grand Drive  United Kingdom,London,SW20 9NB,51.396383,-0.227099
AELTC Community Tennis Centre,170 Grand Drive  United Kingdom,London,SW20 9NB,51.396383,-0.227099
Ainsdale Sports And Social Club,Road SOUTHPORT United Kingdom,Liverpool,PR8 3PF,53.596677,-3.038891
AJT - Slough,"Langley Grammar School, Reddington Drive Langley SLOUGH United Kingdom",London,SL3 7QS,51.498906,-0.553153
Albany Park,Bell Lane ENFIELD United Kingdom,London,EN3 5PA,51.665934,-0.036691
Albert Lawn Tennis Club,"Aldersley Road, Tettenhall  United Kingdom",Wolverhampton,WV6 9NA,52.601946,-2.157376
Albert Park,"Grecian Street, SALFORD United Kingdom",Manchester,M7 1JF,53.497175,-2.26647
Albert Road Rec,"OR Tambo Recreation Ground, Albert Road  United Kingdom",London,N22 7XL,51.600509,-0.133951
Albrighton Lawn Tennis Club,"Al Lawn Tennis Club Kennel Lane, Al , WOLVERHAMPTON United Kingdom",Brighton,WV7 3BQ,52.631995,-2.302591
Alburgh Tennis Club,"Alburgh Village Hall, Low Road, Alburgh HARLESTON United Kingdom",Norwich,IP20 0BZ,52.434224,1.334604
Albury Community Sports Hub,Albury Road  United Kingdom,Aberdeen,AB11 6TN,57.138244,-2.108178
Alcester Tennis Club,Moorfield Road Alcester United Kingdom,Birmingham,B49 5DA,52.216466,-1.870236
Alder Lawn Tennis Club,"Unison Sports & Social Club, Alder Road  United Kingdom",Liverpool,L12 2AY,53.419404,-2.905957
Alderbury Tennis Club,"Old Road, Alderbury SALISBURY United Kingdom",Southampton,SP5 3AR,51.045951,-1.739106
Alderholt Tennis Club,"Ringwood Road, Alderholt FORDINGBRIDGE United Kingdom",Southampton,SP6 3DF,50.910015,-1.833771
Alderley Edge Park,Ridings Lane Alderley Edge United Kingdom,Manchester,SK9 7UY,53.302136,-2.243796
Alderley Edge Tennis Club,"Alderley Edge LTC, Moss Lane ALDERLEY EDGE United Kingdom",Manchester,SK9 7HN,53.3029,-2.230415
Alderley Lawn Tennis Club,"7a Ethelbert Road, Meols WIRRAL United Kingdom",Liverpool,CH47 5AD,53.399958,-3.167261
Aldersbrook Lawn Tennis Club,Blake Hall Crescent Wanstead  United Kingdom,London,E11 3RH,51.565297,0.023728
Alexandra Park,"Cheadle Old Rd, Edgeley   United Kingdom",Stockport,SK3 9RH,53.398044,-2.178488
Alexandra Park (Cheshire),Alexandra Park CHESTER United Kingdom,Liverpool,CH2 3RN,53.204523,-2.868302
"Alexandra Park (Manchester/Moss Side, M16 7JL)","Alexandra Park (/Moss Side, ) 180 Russell Street, Moss Side  United Kingdom",Manchester,M16 7JL,53.452385,-2.245967
Alexandra Park (Oldham),Kings Road OLDHAM United Kingdom,Manchester,OL8 2BH,53.532195,-2.103227
Alexandra Park - Stockport,Alexandra Park -  Cheadle Old Road  United Kingdom,Stockport,SK3 9RG,53.398939,-2.174672
Alexandra Recreation Ground (Epsom),47 Bridge Road EPSOM United Kingdom,London,KT17 4AN,51.335558,-0.254755
Alexandra Recreation Ground (Kingston),Alexandra Road SURBITON United Kingdom,London,KT5 9BE,51.386309,-0.290553
Alexandra Stadium – Birmingham,"Alexandra Stadium –   Alexander Stadium, Walsall Road, Perry Barr ,  United Kingdom",Birmingham,B42 2LR,52.530833,-1.906139
Alfreton Welfare Recreation Ground,Grange Street ALFRETON United Kingdom,Nottingham,DE55 7JA,53.094421,-1.38591
Alfriston Indoor Sports,Heartward Cuckmere Road Alfriston Polegate United Kingdom,Brighton,BN26 5TN,50.804684,0.150967
Alfriston Tennis Centre,"Pleasant Rise, Cuckmere Road Alfriston POLEGATE United Kingdom",Brighton,BN26 5TN,50.804684,0.150967
Alkrington Tennis & Social Club,"The Pavilion, Uplands Alkrington, Middleton  United Kingdom",Manchester,M24 1EA,53.542073,-2.196387
All England Lawn Tennis Club Ltd,"Church Road, Wimbledon  United Kingdom",London,SW19 5AE,51.416892,-0.21329
All Saints Primary School,Plas Cleddau Cwm Talwg Barry United Kingdom,Cardiff,CF62 7FG,51.408209,-3.289916
All Star Tennis - Furzedown Rec,"Chillerton Rd, Tooting  United Kingdom",London,SW17 9BP,51.42524,-0.1537
All Star Tennis - King Georges Park,"King George's Park, Mapleton Road Wandsworth  United Kingdom",London,SW18 4DN,51.452826,-0.192701
All Star Tennis - Leaders Gardens,"Festing Road, Putney ,  United Kingdom",London,SW15 1LS,51.469455,-0.22339
All Star Tennis - Tooting Common,"Dr Johnson Ave, Tooting  United Kingdom",London,SW17 8JU,51.435137,-0.149402
All Star Tennis - Wandsworth Common,"Wandsworth Common Tennis Office, Off Dorlcote Road  United Kingdom",London,SW18 3RT,51.450609,-0.172092
Allestree Recreation Ground,Robin Croft Road  United Kingdom,Derby,DE22 2FQ,52.953357,-1.487679
Alleyn's School Enterprises Ltd,Townley Road  United Kingdom,London,SE22 8SU,51.454856,-0.082177
Alleyn's School Tennis,Alleyn's School Townley Road  United Kingdom,London,SE22 8SU,51.454856,-0.082177
Allt Yr Yn LTC,Allt-yr-yn Road NEWPORT United Kingdom,Cardiff,NP20 5EA,51.591732,-3.007572
Almondsbury and Bradley Stoke Tennis Club,"Gloucester Road, Almondsbury  United Kingdom",Bristol,BS32 4AA,51.551738,-2.569717
Almscliffe Tennis & Bowling Club,"Almscliffe Tennis & Bowling Cl, Almscliffe Hall Harrogate Road  United Kingdom",Leeds,LS17 0EG,53.923825,-1.58254
Alperton Sports Ground,Alperton Lane WEMBLEY United Kingdom,London,HA0 1JH,51.534725,-0.304377
Alresford Tennis Club,"Arlebury Park, Avenue Road ALRESFORD United Kingdom",Southampton,SO24 9EP,51.089328,-1.169751
Alrewas Tennis Club,Walkfield Park BURTON-ON-TRENT United Kingdom,Birmingham,DE13 7EW,52.729118,-1.753592
Altash Gardens,Altash Way Coldharbour Estate United Kingdom,London,SE9 3AL,51.435605,0.060751
Altrincham Football Club,Moss Lane Altricham,Manchester,WA15 8AP,53.382992,-2.335213
Alvaston Park,"Meadow Lane, Alvaston  United Kingdom",Derby,DE24 8QQ,52.902607,-1.436717
Alveley Tennis Club,Daddlebrook Road Alveley BRIDGNORTH United Kingdom,Birmingham,WV15 6JT,52.460479,-2.344433
Alverstoke Infant School,"Alver Infant School Alver County Infant School, Ashburton Road , GOSPORT United Kingdom",Stoke,PO12 2LH,50.783942,-1.150561
Alverstoke Lawn Tennis Squash & Badminton Club,"Alver Lawn Tennis Squash & Badminton Club Green Lane, Off Angelsey Road GOSPORT United Kingdom",Stoke,PO12 2ES,50.788094,-1.147705
Alwoodley Tennis Club,"Alwoodley Community Association, The Avenue  United Kingdom",Leeds,LS17 7NZ,53.859373,-1.554932
Ambler Primary School,"Blackstock Rd ,  United Kingdom",London,N4 2DR,51.562126,-0.100694
Anchor LTC,"18 Woodside Road, Brookfield JOHNSTONE United Kingdom",Glasgow,PA5 8UB,55.847769,-4.530518
Anerley Town Hall,"Anerley Road, ,  United Kingdom",London,SE20 8BD,51.412115,-0.067501
Angmering-on-Sea Lawn Tennis Club,Homelands Avenue East  LITTLEHAMPTON United Kingdom,Preston,BN16 1PS,50.807348,-0.476312
Anonymous Household,"20 Nook Rise, Wavertree  United Kingdom",Liverpool,L15 7JB,53.402476,-2.905056
Anstey Gynsill Tennis Club,"Cnr of Gynsill Close, & Gorse Hill Anstey  United Kingdom",Leicester,LE7 7AN,52.668199,-1.182814
Antonine Sports Club,"The Antonine Sports Centre, Roman Road CLYDEBANK United Kingdom",Glasgow,G81 6BT,55.923338,-4.411949
Antsy Cricket Club,"The Poplars, Deaks Lane, Ansty, West Sussex HAYWARDS HEATH",Brighton,RH17 5AS,50.99588,-0.164007
AO Arena,Hunts Bank  United Kingdom,Manchester,M3 1AR,53.488063,-2.244152
Appleton Roebuck Tennis Club,Ashbrook Church Lane Appleton Roebuck  United Kingdom,York,YO23 7DF,53.870709,-1.16388
Arc Leisure Matlock,Bakewell road Matlock United Kingdom De43az,Sheffield,DE4 3AZ,53.143265,-1.570012
Archbishop Beck Tennis Centre,"Crescent Road, Walton  United Kingdom",Liverpool,L9 2AW,53.455535,-2.954902
Archbishops LTC,"Wild Acres House, Forest Drive Kingswood TADWORTH United Kingdom",London,KT20 6LP,51.297184,-0.200569
Archbishops Park,Carlisle Lane Waterloo  United Kingdom,London,SE1 7LG,51.498488,-0.11651
Ardencote Leisure Club,"Ardencote Manor Hotel Leisure Club, Lye Green Rd WARWICK United Kingdom",Birmingham,CV35 8LT,52.288208,-1.707806
Argyll Park Tennis Courts,Argyll Park Argyll Street Alexandria ALEXANDRIA United Kingdom,Glasgow,G83 0QJ,55.995005,-4.586131
Aria Tennis Association,"The Old Fire Station, 55 High Street , BRENTFORD United Kingdom",London,TW8 0AH,51.484448,-0.302528
Ark Soane Academy,Gunnersbury Lane  United Kingdom,London,W3 8EA,51.507915,-0.276337
Arkley Association Tennis Club (The),"Arkley Village Hall, Brickfield Lane Arkley BARNET United Kingdom",London,EN5 3LD,51.642631,-0.243005
Armitage Tennis Courts,Shropshire Brook Road Armitage RUGELEY United Kingdom,Birmingham,WS15 4UZ,52.738151,-1.872844
Armley Park,"Stanningley Road ,  United Kingdom",Leeds,LS12 3LW,53.7991,-1.592795
Armley Tennis Club,"The Pavilion, 58 Stanningley Road  United Kingdom",Leeds,LS12 2QS,53.802928,-1.60621
Armstrong Park,Jesmond Vale Lane  UPON TYNE United Kingdom,Newcastle,NE6 5QJ,54.986266,-1.582682
Arnos Park,Waterfall Road Southgate  United Kingdom,London,N11 1AP,51.617309,-0.131803
Arrowe Park Woodchurch,"Arrowe Park Rd, Birkenhead WIRRAL United Kingdom",Liverpool,CH49 5LW,53.366156,-3.089497
Arthurlee LTC,"Springhill Road, Barrhead ,  United Kingdom",Glasgow,G78 2SE,55.789992,-4.394716
Arundel Lawn Tennis Club,"Mill Road, ARUNDEL United Kingdom",Brighton,BN18 9PA,50.855188,-0.55085
Ashbrooke Sports Club,"West Lawn , SUNDERLAND United Kingdom",Newcastle,SR2 7HW,54.895584,-1.385321
Ashburton Park,Lower Addiscombe Road CROYDON United Kingdom,London,CR0 6RX,51.383528,-0.065917
Ashby Castle Lawn Tennis Club,"adjacent to Ashby Castle, off South Street ASHBY-DE-LA-ZOUCH United Kingdom",Nottingham,LE65 1BQ,52.746299,-1.470669
Ashcombe Park,Upper  Road WESTON-SUPER-MARE United Kingdom,Bristol,BS22 8BT,51.356269,-2.953711
Ashford LTC,"Woodthorpe Road , ASHFORD United Kingdom",London,TW15 3JX,51.434234,-0.475953
Ashford Recreation Ground,Clockhouse Lane ASHFORD United Kingdom,London,TW15 2HH,51.433298,-0.455267
Ashover Tennis Club,"Milken Lane, Far Hill Ashover CHESTERFIELD United Kingdom",Nottingham,S45 0BA,53.166544,-1.471056
Ashtead Squash & Tennis Club,39 Skinners Lane ASHTEAD United Kingdom,London,KT21 2NN,51.308647,-0.30839
Ashtead Tennis Players Club,"The Recreation Ground, Woodfield Lane ASHTEAD United Kingdom",London,KT21 2BQ,51.312173,-0.302248
Ashton Hayes Primary School,"Ashton Hayes Cp School, Church Road, Ashton , CHESTER United Kingdom",Liverpool,CH3 8AB,53.220683,-2.740705
Ashton Park,Grosvenor Rd SALE United Kingdom,Manchester,M33 6PA,53.431154,-2.331545
Ashton Park West Kirby,"Carpenter's Ln, West Kirby WIRRAL United Kingdom",Liverpool,CH48 7EX,53.370614,-3.17677
Ashwell Tennis Club,Ashwell Street BALDOCK United Kingdom,Cambridge,SG7 5QF,52.042147,-0.142616
Aslockton Tennis Club,Main Street Aslockton  United Kingdom,Nottingham,NG13 9AL,52.9538,-0.897337
Aspire@ThePark,Park Road PONTEFRACT United Kingdom,Leeds,WF8 4QD,53.695774,-1.322465
Aspley YMCA,"YMCA, Melbourne Road ,  United Kingdom",Nottingham,NG8 5HL,52.975787,-1.192725
Astley & Tyldesley Tennis Club,"Ley Street, Gin Pit Village Astley WIGAN United Kingdom",Manchester,M29 7GU,53.504445,-2.471169
Astley Park,Astley Gardens WHITLEY BAY United Kingdom,Newcastle,NE25 0AE,55.071411,-1.524105
Aston Cantlow Tennis Club,"14 Guild Road, Aston Cantlow , HENLEY-IN-ARDEN United Kingdom",Birmingham,B95 6JA,52.23821,-1.797289
AT7 Leisure Centre,"Bell Green Road ,  United Kingdom",Coventry,CV6 7GP,52.430642,-1.48412
Athelstaneford Community Tennis,NORTH BERWICK United Kingdom,Edinburgh,EH39 5BG,55.987325,-2.744274
Atherstone Grove Tennis Club,"Atherstone Grove, Cookes Close ATHERSTONE United Kingdom",Birmingham,CV9 1DR,52.575213,-1.543662
Atlantic Court,1 Atlantic Crescent WEMBLEY United Kingdom,London,HA9 0TQ,51.556937,-0.276633
Attenborough Lawn Tennis Club,"Shady Lane, Attenborough  United Kingdom",Nottingham,NG9 6AW,52.906354,-1.228272
Aughton Lawn Tennis Club,Granville Park ORMSKIRK United Kingdom,Liverpool,L39 5DT,53.545845,-2.906376
Auriol Park,Sailsbury Road EPSOM United Kingdom,London,KT4 7DE,51.371384,-0.26019
Avenue Lawn Tennis and Squash Club,Southleigh Road HAVANT United Kingdom,Southampton,PO9 2RS,50.851762,-0.968158
Avenue Lawn Tennis Club (BURNHAM ON SEA) Limited,The Grove BURNHAM-ON-SEA United Kingdom,Cardiff,TA8 2PA,51.246116,-2.995776
Avenue Park,High Street Cranford HOUNSLOW United Kingdom,London,TW5 9RU,51.484275,-0.410123
Avenue Tennis Club,The Grove burnham on sea United Kingdom,Cardiff,TA8 2HG,51.244528,-2.999495
Avery Hill Tennis Courts,Avery Hill Road  United Kingdom,London,SE9 2UG,51.446183,0.080987
Aveton Gifford Tennis Club,"Memorial Hall Car Park, Aveton Gifford KINGSBRIDGE United Kingdom",Plymouth,TQ7 4LL,50.314047,-3.835994
Avorians Seagulls Tennis Club,Convent Lane COBHAM United Kingdom,London,KT11 1HB,51.33859,-0.426292
AVTCC,"Blackhall Lane, Avonwick SOUTH BRENT United Kingdom",Plymouth,TQ10 9EJ,50.408962,-3.813777
Aylsham Tennis Club,"Recreation Ground, Sir Williams Lane Aylsham  United Kingdom",Norwich,NR11 6AJ,52.794749,1.252797
Backwell Tennis Club,"Recreation Ground, West Town Road  United Kingdom",Bristol,BS48 3HG,51.411654,-2.743451
Badgers Tennis Club,"Church Place, Kemp Town  United Kingdom",Brighton,BN2 5JN,50.817973,-0.111692
Bakewell Recreation Ground,Haddon Road BAKEWELL United Kingdom,Sheffield,DE45 1AW,53.208673,-1.67023
Balcombe Tennis Club,Oldlands Avenue HAYWARDS HEATH United Kingdom,Brighton,RH17 6LY,51.055152,-0.128188
Baldwins Lane Playing Fields,Baldwins Lane RICKMANSWORTH United Kingdom,London,WD3 3LE,51.653708,-0.449029
Balerno Lawn Tennis Club,Bavelaw Road  United Kingdom,Edinburgh,EH14 7AG,55.884621,-3.338561
Balham Leisure Centre,"Elmfield Road ,  United Kingdom",London,SW17 8AN,51.440848,-0.152869
Bamford Tennis Club,"War Office Road , ROCHDALE United Kingdom",Manchester,OL11 5HR,53.609268,-2.207914
Banchory Community Tennis Courts,"Dee Street , BANCHORY United Kingdom",Aberdeen,AB31 5ST,57.050634,-2.502371
Banchory TC,Burnett Park BANCHORY United Kingdom,Aberdeen,AB31 4FE,57.055337,-2.518904
Bancrofts School,611-627 High Road WOODFORD GREEN United Kingdom,London,IG8 0RF,51.619678,0.02668
Bank of America,2 King Edward Street  United Kingdom,London,EC1A 1HQ,51.51636,-0.09888
Bank of England LTC,"Bank of England Sports Ground, Priory Lane  United Kingdom",London,SW15 5JQ,51.46279,-0.250238
Bankes Park,"Billinge Street , Billinge United Kingdom",Manchester,WN5 7HR,53.502452,-2.704362
Bannatyne's LTC,"Bannatyne's Health Club, 2 Northside St. Andrews Business Park  United Kingdom",Norwich,NR7 0HT,52.631499,1.366325
Bannatynes Health Club (Chafford Hundred),"Howard Road, Chafford Hundred GRAYS United Kingdom",London,RM16 6YJ,51.490756,0.290602
Bannatynes Health Club (Grove Park),"35 Marvels Lane ,  United Kingdom",London,SE12 9PN,51.436037,0.025635
Banstead Downs Tennis Club,Basing Road BANSTEAD United Kingdom,London,SM7 2AH,51.32498,-0.209328
Bar Hill Tennis Club,"Nr Bar Hill Church, Bar Hill  United Kingdom",Cambridge,CB23 8EL,52.254566,0.015953
Bar Lawn Tennis Society,"c/o Jonathan Upon,  Serle Court Lincoln's Inn  United Kingdom",London,WC1R 5DJ,51.518836,-0.114084
Barbican Lawn Tennis Club,"City of  School for Girls, St. Giles Terrace, St. Giles Churchyard, Barbican ,  United Kingdom",London,EC2Y 8BB,51.519131,-0.094483
Barcombe Tennis Club,c/o Barcombe Stores and Post Office High Street LEWES United Kingdom,Brighton,BN8 5DH,50.924426,0.020123
Bardowie Tennis Club,11 Station Road Bardowie  United Kingdom,Glasgow,G62 6ET,55.932527,-4.267001
Bardsey Tennis Club,"Woodacre Lane, Bardsey ,  United Kingdom",Leeds,LS17 9DG,53.884302,-1.445756
Barking Park,Longbridge Rd BARKING United Kingdom,London,IG11 8SS,51.543509,0.088814
Barkingside Recreation Ground,Mossford Green ILFORD United Kingdom,London,IG6 2PE,51.589093,0.077695
Barley Lane Recreation Ground,Barley Lane ILFORD United Kingdom,London,RM6 4RH,51.568612,0.113672
Barley Mow Park,Ryhope Road SUNDERLAND United Kingdom,Newcastle,SR2 9RQ,54.8855,-1.367501
Barley Tennis Club,The Plaistow ROYSTON United Kingdom,Cambridge,SG8 8JW,52.027063,0.041844
Barleyhill Park,"Barley Hill Road, Garforth  United Kingdom",Leeds,LS25 1AU,53.792472,-1.395748
Barn Elms Sports Trust,"Marathon Pavilion, Queen Elizabeth Walk  United Kingdom",London,SW13 9SA,51.475501,-0.232515
Barn Elms Sports Trust- Tennis Courts,"Marathon Pavilion, Queen Elizabeth Walk Barnes  United Kingdom SW139SA",London,SW13 9SA,51.475501,-0.232515
Barnes Park,"Road , SUNDERLAND United Kingdom",Newcastle,SR4 7PY,54.896451,-1.40603
Barnes Tennis Club,The Club House 261 Lonsdale Road Barnes  United Kingdom,London,SW13 9QL,51.477533,-0.248695
Barnet Lawn Tennis Club,Gloucester Road BARNET United Kingdom,London,EN5 1RS,51.647275,-0.183026
Barns Green Tennis Club,"Barns Green Sports & Social Club, Muntham Drive, Barns Green , HORSHAM United Kingdom",Brighton,RH13 0PT,51.03332,-0.39569
Barnsley Lawn Tennis Club,"The Crescent, Wilthorpe BARNSLEY United Kingdom",Leeds,S75 1JH,53.566544,-1.503062
Barnt Green Sports Club,"Margesson Drive, Barnt Green  United Kingdom",Birmingham,B45 8LR,52.364517,-1.987744
Barnton Cricket Club,Townfield Lane Barnton Northwich United Kingdom,Manchester,CW8 4QL,53.276059,-2.551043
Barnton Park LTC,12 Barnton Park  United Kingdom,Edinburgh,EH4 6JF,55.967428,-3.279658
Barrhead Community Tennis Courts,"Cowan Park, Darnley Road, Barrhead  United Kingdom",Glasgow,G78 1TA,55.805857,-4.374673
Barrhead Cowan Park,Aurs Road Barrhead  United Kingdom,Glasgow,G78 2RN,55.802901,-4.382982
Barrow Bridge Tennis Club,"off Brazeley Street, Barrow Bridge  United Kingdom",Bolton,BL1 7NE,53.599369,-2.471695
Barrow Tennis Club,Tennis Courts On Barrow Playing Field BURY ST. EDMUNDS United Kingdom,Cambridge,IP29 5AP,52.24438,0.579419
Barry Athletic LTC,Paget Road BARRY United Kingdom,Cardiff,CF62 5TQ,51.390945,-3.276725
Barry Community Tennis Club,"Romilly Park Road , BARRY United Kingdom",Cardiff,CF62 6RN,51.393972,-3.290134
Barry Island Primary School,"Barry Island Junior & Infant School, Clive Road , BARRY United Kingdom",Cardiff,CF62 5UZ,51.395206,-3.274285
Barton Tennis Club,"Barton Recreation Ground, Barton  United Kingdom",Cambridge,CB23 7BG,52.180424,0.059363
Barwick in Elmet Tennis Club,Welfare Avenue  United Kingdom LS154EQ,Leeds,LS15 4EQ,53.829902,-1.392688
Basing Hill Park,"Hendon Way ,  United Kingdom",London,NW11 8TJ,51.56764,-0.205337
Baslow Tennis Club,Church Lane BAKEWELL United Kingdom,Sheffield,DE45 1SP,53.246162,-1.617821
Bassett Lawn Tennis Club,Wilton Road  United Kingdom,Southampton,SO15 5JR,50.925252,-1.422569
Bath Tennis Club,"Park Lane, Weston BATH United Kingdom",Bristol,BA1 2XQ,51.387225,-2.378892
Batley Sports & Tennis Centre,"Batley Sports and Tennis Centre, Windmill Lane Howden Clough BATLEY United Kingdom",Leeds,WF17 0QD,53.732544,-1.643991
Batley Tennis Centre - We Do Tennis CIC,Windmill Ln Howden Clough Batley United Kingdom,Leeds,WF17 0QD,53.732544,-1.643991
Battersea Park Tennis Courts,"Battersea Park, East Carriage Drive  United Kingdom",London,SW11 4NJ,51.480182,-0.155703
Baxter Park and Brookside Tennis Club,"Highcrest Avenue, Gatley CHEADLE United Kingdom",Manchester,SK8 4HD,53.390242,-2.243956
Beacon Park,Swan Road Lichfield United Kingdom,Birmingham,WS13 6QZ,52.682041,-1.831736
Beacon Tennis Club,King George Playing Fields Woodhouse Eaves United Kingdom,Nottingham,LE12 8RZ,52.72594,-1.215983
BEAP Midland Road Sports Complex,31 Cornwall Road  United Kingdom,Bradford,BD8 7JN,53.802469,-1.759295
Bearsden LTC,"Jubilee Gardens, Bearsden  United Kingdom",Glasgow,G61 2RT,55.918187,-4.32938
Beauchief Tennis Club,35 Cockshutt Avenue  United Kingdom,Sheffield,S8 7DU,53.330053,-1.492041
Beaversfield Park,Rosemary Avenue HOUNSLOW United Kingdom,London,TW4 7JQ,51.472243,-0.389662
Beccles Caxton Sports and Social Club,Caxton meadow Beccles United Kingdom,Norwich,NR34 9BU,52.457325,1.571174
Beccles Tennis Club,"Alan Hutchinson Way, Common Lane BECCLES United Kingdom",Norwich,NR34 9RH,52.456292,1.572636
Beckenham Sports Club,"C/O , Foxgrove BECKENHAM United Kingdom",London,BR3 5AS,51.41336,-0.021933
Beckett Park,28 Batcliffe Mount  United Kingdom,Leeds,LS6 3PW,53.82327,-1.587821
Beckfoot and Bingley Tennis Club,Beckfoot Lane BINGLEY United Kingdom,Leeds,BD16 1LX,53.839593,-1.836053
Beckington Tennis Association,"Warminster Road, Beckington FROME United Kingdom",Bristol,BA11 6TR,51.265612,-2.282346
Beddington Park,Church Rd WALLINGTON United Kingdom,London,SM6 7NN,51.373179,-0.139876
Bedes Senior School,Upper Dicker HAILSHAM United Kingdom,Brighton,BN27 3QH,50.866597,0.202564
Bedfont Rec,Hatton Road FELTHAM United Kingdom,London,TW14 8JA,51.455677,-0.436089
Bedwellty Park,"Bedwelty Park, Morgan Street TREDEGAR United Kingdom",Cardiff,NP22 3XN,51.768889,-3.242943
Beech Hurst,Butlers Green Road HAYWARDS HEATH United Kingdom RH164BB,Brighton,RH16 4BB,50.999248,-0.116329
Beech Hurst Gardens,Butlers Green Road HAYWARDS HEATH United Kingdom,Brighton,RH16 4BB,50.999248,-0.116329
Beechcroft TC,"Beechcroft Avenue, Hall Green  United Kingdom",Birmingham,B28 9ER,52.425586,-1.838905
Beechwood Lawn Tennis Club,"Beechwood Avenue, Earlsdon  United Kingdom",Coventry,CV5 6FQ,52.396155,-1.538441
Beechwood Park,Christ Church Road NEWPORT United Kingdom,Cardiff,NP19 8AH,51.592724,-2.962251
Beeslack Tennis Courts,Road Penicuik United Kingdom,Edinburgh,EH26 0QF,55.84045,-3.21175
Belair Park,"Gallery Rd, Camberwell Southwark United Kingdom",London,SE21 7EX,51.443126,-0.070984
Belbroughton Tennis Club,"Recreation Centre, Hartle Lane STOURBRIDGE United Kingdom",Birmingham,DY9 9TJ,52.390757,-2.114919
Belle Vue Park,33 Waterloo Road NEWPORT United Kingdom,Cardiff,NP20 4FP,51.578538,-3.004784
Bellfield Park,3,Inverness,IV2 4TB,57.469848,-4.227654
Bellingham Lawn Tennis Club,Bellingham Drive WIGAN United Kingdom,Manchester,WN1 2NF,53.557367,-2.627575
Bells Lane Community Centre,"194 Amesbury Circus ,  United Kingdom",Nottingham,NG8 6DD,52.984556,-1.206713
Belper Meadows,"Christ Church Meadows, Bridge Street BELPER United Kingdom",Nottingham,DE56 1BA,53.02627,-1.485714
Belvedere Recreation Ground South,Woolwich Road Belvedere BELVEDERE United Kingdom,London,DA17 5EW,51.484421,0.146305
Belvoir Vale Tennis Club,"Rear Of Village Hall, off Hose Lane Mount Pleasant, MELTON MOWBRAY United Kingdom",Nottingham,LE14 4JX,52.850926,-0.893009
Ben Collingwood Tennis,"Lynn Grove VA High School, Lynn Grove, Gorleston , GREAT YARMOUTH United Kingdom",Norwich,NR31 8AP,52.583426,1.708887
Bentley Tennis Club,"Ongar Road, Pilgrims Hatch BRENTWOOD United Kingdom",London,CM15 9RZ,51.640827,0.275697
Benwell Hill Lawn Tennis Club,"Denton Bank, Denton Burn  UPON TYNE United Kingdom",Newcastle,NE15 7EU,54.980108,-1.679649
Berkeley Fields,Horsenden Lane North Greenford  United Kingdom,London,UB6 7QJ,51.549931,-0.330726
Berkswell & Balsall Common Tennis Club,Meeting House Lane Balsall Common  United Kingdom,Coventry,CV7 7GE,52.386148,-1.642351
Bertram Lawn Tennis Club,Bertram Drive Meols WIRRAL United Kingdom,Liverpool,CH47 0LG,53.398497,-3.165988
Best Tennis - Hampton Sports Centre,"Hampton Academy, Hanworth Road , HAMPTON United Kingdom",London,TW12 3HB,51.429025,-0.373992
Best Tennis - Leatherhead Leisure Centre,"Leatherhead Gymnasium, Guildford Road, Fetcham , LEATHERHEAD United Kingdom",London,KT22 9BL,51.289899,-0.334234
Best Tennis - Shene Sports Centre,"Flat 8, Swaythling House, Tunworth Crescent ,  United Kingdom",London,SW15 4PQ,51.452177,-0.25191
Best Tennis - Teddington Sports Centre,"Teddington School, Broom Road , TEDDINGTON United Kingdom",London,TW11 9PJ,51.423227,-0.312435
Bestwood Country Park,"Woodchurch Road, Arnold  United Kingdom",Nottingham,NG5 8NJ,53.010887,-1.154749
Bethune Park,Manor Drive BARNET United Kingdom,London,N11 3BB,51.621479,-0.153272
Beverley Park Lawn Tennis Club,Beverley Road Whitley Bay United Kingdom,Newcastle,NE25 8JH,55.039321,-1.461315
Beverley Park Recreation Ground,"57 Park View , NEW MALDEN United Kingdom",London,KT3 4AX,51.403316,-0.248052
Bewdley Tennis Club,20 Stourport Road BEWDLEY United Kingdom,Birmingham,DY12 1BD,52.374937,-2.308791
Bewsey and Dallam,"Muga, Longshaw Street , WARRINGTON United Kingdom",Manchester,WA5 0DY,53.406725,-2.60562
Bexley Cricket Club (Tennis Section),Manor Way BEXLEY United Kingdom,London,DA5 3QG,51.438732,0.144132
"Bexley Lawn Tennis, Squash and Racketball Club",Parkhurst Rd BEXLEY United Kingdom,London,DA5 1AX,51.444878,0.148306
Bexley Park Sports and Social Club,"Bexley Park Sports & Social Club, Calvert Drive , DARTFORD United Kingdom",London,DA2 7GA,51.433366,0.170814
Bexleyheath Tennis club,Park view road Welling Bexleyheath United Kingdom,London,DA16 1SY,51.460439,0.116013
Bidbury Mead Recreation Ground,"Bidbury Lane, Bedhampton HAVANT United Kingdom",Southampton,PO9 3JG,50.853065,-1.003233
Biddestone Tennis Club,Yatton Road Biddestone CHIPPENHAM United Kingdom,Bristol,SN14 7BZ,51.464469,-2.198281
Biggin Woods,"Biggin Hill, Upper Norwood  United Kingdom",London,SE19 3HT,51.415625,-0.104025
Biggleswade Conservative Tennis Club,St Andrews Street BIGGLESWADE United Kingdom,Cambridge,SG18 8BA,52.085896,-0.266181
Billesley Indoor Tennis Centre,Wheelers Lane Kings Heath  United Kingdom,Birmingham,B13 0ST,52.430181,-1.877922
Billingshurst Lawn Tennis Club,"Recreation Ground, Lower Station Road BILLINGSHURST United Kingdom",Brighton,RH14 9SU,51.013975,-0.450988
Bilston Lawn Tennis Club,Villiers Avenue BILSTON United Kingdom,Birmingham,WV14 6AU,52.569867,-2.080096
Bingham Lawn Tennis Club,"c/o Toot Hill School, The Banks Bingham  United Kingdom",Nottingham,NG13 8BL,52.949361,-0.954247
Bingham Park,Road  United Kingdom,Sheffield,S11 7AB,53.367762,-1.511866
Birchwood Leisure & Tennis Complex,Birchwood Community Hub Benson Road WARRINGTON United Kingdom,Manchester,WA3 7PQ,53.414449,-2.527677
Birkdale Lawn Tennis Club,"Southport & Birkdale Sports Club, Trafalgar Road SOUTHPORT United Kingdom",Liverpool,PR8 2HF,53.629451,-3.022003
Birkenhead Lawn Tennis Club,"1a Sandy Way, Oxton PRENTON United Kingdom",Liverpool,CH43 1TZ,53.388167,-3.051911
Birkenhead Park,Park Road North BIRKENHEAD United Kingdom,Liverpool,CH41 8AX,53.396229,-3.043869
Birmingham Council,Council Vicarage Rd  United Kingdom,Birmingham,B14 7TQ,52.431795,-1.90223
Birstall Watermead Tennis Club,"off Redhill Circle, behind Co-op Playing Fields Clubhouse Birstall Road, Birstall  United Kingdom",Leicester,LE4 4DE,52.667616,-1.126217
Birstwith Tennis Club,Wreaks Road HARROGATE United Kingdom HG32NN,Leeds,HG3 2NN,54.032697,-1.630184
Bishop Duppas Park,Walton Bridge Road SHEPPERTON United Kingdom,London,TW17 8NR,51.390303,-0.434079
Bishop Sutton Tennis Club,"Wick Road, Bishop Sutton  United Kingdom",Bristol,BS39 5TP,51.337084,-2.586846
Bishop's Waltham Junior School,"Bishops Waltham Junior School, Oak Road, Bishops Waltham ,  United Kingdom",Southampton,SO32 1EP,50.954815,-1.204284
Bishopbriggs LTC,"Balmuildy Road, Bishopbriggs  United Kingdom",Glasgow,G64 3BS,55.908897,-4.226277
Bishops Park Tennis Centre,"Bishops Park Tennis Club, Bishops Avenue Fulham  United Kingdom",London,SW6 6DZ,51.473803,-0.214797
Bishops Waltham,"Hoe Road Recreation Ground,   United Kingdom",Southampton,SO32 1DU,50.953501,-1.200135
Bishopshalt school,"Bishophalt School, Royal Lane , UXBRIDGE United Kingdom",London,UB8 3RF,51.532528,-0.459957
Bishopton Tennis Club,Poplar Avenue BISHOPTON United Kingdom,Glasgow,PA7 5AE,55.903767,-4.500903
Bizzkids Day Nursery,"67 Hummer Road , EGHAM United Kingdom",London,TW20 9BP,51.433587,-0.544628
Blackhall LTC,Keith Terrace  United Kingdom,Edinburgh,EH4 3NJ,55.956181,-3.250617
Blackheath (Chesterfield Walk),Chesterfield Walk Off Shooters Hill Rd GUILDFORD United Kingdom,London,SE10 8QX,51.473411,-0.001611
Blackheath Lawn Tennis Club,Charlton Road  United Kingdom,London,SE7 7EY,51.479317,0.027897
Blackheath Wanderers LTC,Rear 63 Eltham Road  United Kingdom,London,SE12 8UF,51.45574,0.019396
Blackley Recreational Ground,2 Ashton Road  United Kingdom,Manchester,M9 0SA,53.534331,-2.218801
Blackwood Showfield,Sunnybank Road BLACKWOOD United Kingdom,Cardiff,NP12 1HY,51.673398,-3.201235
Blagdon Tennis Club,The Mead Bath Road Blagdon United Kingdom,Bristol,BS40 7TH,51.3267,-2.717233
Blakedown & Hagley Tennis Club,"Blakedown Sports Centre,  Road KIDDERMINSTER United Kingdom",Birmingham,DY10 3JN,52.404049,-2.177013
Blakers Park,Stanford Avenue,Brighton,BN1 6AA,50.836796,-0.141909
Blaydon Tennis Club,"Derwenthaugh Park, Spa Well Road BLAYDON-ON-TYNE United Kingdom",Newcastle,NE21 6JA,54.948248,-1.699572
Blaydon Youth and Community Centre,"Blaydon Youth & Community Centre, Shibdon Road BLAYDON-ON-TYNE United Kingdom",Newcastle,NE21 5LU,54.959328,-1.703191
Blofield Primary School,"Blofield Cp School, North Street, Blofield ,  United Kingdom",Norwich,NR13 4RH,52.637407,1.447616
Blofield Tennis Club,"Margaret Harker Hall, Yarmouth Road  United Kingdom",Norwich,NR13 4LE,52.633366,1.448333
Bloomfield Tennis Club,98 Wellsway BATH United Kingdom,Bristol,BA2 4SD,51.365727,-2.367108
Blossomfield Tennis Club,"The Wardens, Widney Lane SOLIHULL United Kingdom",Birmingham,B91 3JY,52.39902,-1.792087
Bloxwich Active Living Centre,"High St. ,  United Kingdom",Walsall,WS3 2DA,52.611536,-1.99905
Blue Tennis,Kent County Cricket Club Off Worsley Bridge Road BECKENHAM United Kingdom,London,BR3 1DR,51.419304,-0.027257
Bluecoat Sports Health and Fitness Club,Christ's Hospital Horsham United Kingdom,Brighton,RH13 0YB,51.045156,-0.360772
Blundellsands Lawn Tennis Club,"Warren Road, Blundellsands  United Kingdom",Liverpool,L23 6UF,53.490884,-3.047638
Blyth Ridley Tennis Club,46 Albatross Way South Beach Estate BLYTH United Kingdom,Newcastle,NE24 3QH,55.107608,-1.510806
Bo'ness Tennis Club,Harbour Road BO'NESS United Kingdom,Edinburgh,EH51 9LF,56.016164,-3.583304
Bohemians @ Vagabonds Lawn Tennis Club,C/O Vagabonds Queens Drive Stoneycroft  United Kingdom,Liverpool,L13 0AG,53.422239,-2.912503
Bohemians Tennis Club,"South Ridge, Brunton Park  UPON TYNE United Kingdom",Newcastle,NE3 2EJ,55.023497,-1.6275
Boldmere Tennis Club,"Rear Of Royal Sutton Coldfield Club, 138 Jockey Road SUTTON COLDFIELD United Kingdom",Birmingham,B73 5PP,52.551987,-1.834105
Boldon LTC,Dipe Lane EAST BOLDON United Kingdom,Newcastle,NE36 0PQ,54.943017,-1.441685
Bollington Recreation Ground,Adlington Road MACCLESFIELD United Kingdom,Manchester,SK10 5JT,53.298942,-2.104914
Bolnore Woodside Tennis,120 Middle Village HAYWARDS HEATH United Kingdom,Brighton,RH16 4GJ,50.98954,-0.116082
Bolton Arena,"Arena  Arena Tennis Centre,  Arena  United Kingdom",Bolton,BL6 6LB,53.578883,-2.538075
Bolton Road Park,Wordsworth Avenue Radcliffe  United Kingdom,Manchester,M26 3GX,53.563692,-2.345896
Bookham LTC,"Chrystie Recreation Ground, Dorking Road LEATHERHEAD United Kingdom",London,KT23 4PA,51.27645,-0.370995
Boothsbank Park,"Boothsbank Avenue Boothstown,  United Kingdom",Manchester,M28 1EZ,53.501583,-2.411226
Bostall Gardens,Viola Avenue Abbey Wood  United Kingdom,London,SE2 0TQ,51.486368,0.111394
Boston Manor Tennis Club,"Boston Manor Park, Brentford BRENTFORD United Kingdom",London,TW8 9JX,51.492341,-0.318585
Boston Spa Academy Tennis Centre,"Boston Spa Comprehensive School, Clifford Moor Road, Boston Spa , WETHERBY United Kingdom",Leeds,LS23 6RW,53.900119,-1.362009
Boston Spa Tennis Club,Stables Lane WETHERBY United Kingdom,Leeds,LS23 6BX,53.903401,-1.345521
Bothwell LTC,18 Mill Road Bothwell  United Kingdom,Glasgow,G71 8DJ,55.800262,-4.071416
Bounds Green Bowls & LTC,Brownlow Road Bounds Green  United Kingdom,London,N11 2BS,51.610064,-0.122395
Bourn Sports Club,"Jubilee Recreation Ground, Alms Hill Bourn  United Kingdom",Cambridge,CB23 2SH,52.193168,-0.063378
Bourneville Park,"23 Thorn Road ,  United Kingdom",Birmingham,B30 1UG,52.428925,-1.938224
Bournville Ltc,"Off Maryvale Rd, Bournville Lane Bournville  United Kingdom",Birmingham,B30 2DH,52.425486,-1.930553
Bowdon Bowling & Lawn Tennis Club,St Mary's Road ALTRINCHAM United Kingdom,Manchester,WA14 2PL,53.378229,-2.362369
Bowdon LTC,"Green Walk, Bowdon , ALTRINCHAM United Kingdom",Manchester,WA14 2SJ,53.378877,-2.36517
Bowling Park,Bowling Hall Road  United Kingdom,Bradford,BD5 8RA,53.774101,-1.741082
Bowthorpe Park,Clover Hill Rd,Norwich,NR5 9DX,52.641028,1.223319
Box Recreation Ground,Valens Terrace Box United Kingdom,Bristol,SN13 8NT,51.416055,-2.255131
Brabyns Lawn Tennis Club,"Brabyns Brow, Marple  United Kingdom",Stockport,SK6 7DA,53.399835,-2.057532
Brackendale LTC,Brackendale  United Kingdom,London,N21 3DH,51.628732,-0.11005
Bradfield Village Fellowship Tennis Club,"Ibbotson Memorial Field, Low Bradfield  United Kingdom",Sheffield,S6 6LB,53.422819,-1.604836
Bradford Academy (JC Sports Centre),"Academy (JC Sports Centre) The John Craig Sports Centre, Teasdale Street ,  United Kingdom",Bradford,BD4 7QJ,53.776979,-1.729486
Bradford Grammar School,Grammar School Keighley Road  United Kingdom BD94JP,Bradford,BD9 4JP,53.81456,-1.769827
Bradford Street Recreation Ground,"Street Recreation Ground  Street, BOLTON United Kingdom",Bradford,BL4 9JY,53.542413,-2.396289
Bradford-On-Avon Lawn Tennis Club,"On-Avon Lawn Tennis Club Culver Close, Frome Road -ON-AVON United Kingdom",Bradford,BA15 1HY,51.340782,-2.243802
Bradgate park,Kimberworth ROTHERHAM United Kingdom,Sheffield,S61 1QJ,53.434394,-1.386715
Bradshaw Tennis Club,"The Rigbys, Off  Road, Bradshaw  United Kingdom",Bolton,BL2 3EU,53.604481,-2.40086
Braid LTC,58 Cluny Gardens  United Kingdom,Edinburgh,EH10 6BR,55.925751,-3.197799
Bramhall Lane Lawn Tennis Club,"Ramsdale Road, Bramhall  United Kingdom",Stockport,SK7 2PZ,53.366667,-2.164877
Bramhall Park Lawn Tennis Club,"Bramhall Park Road, Bramhall  United Kingdom",Stockport,SK7 3JN,53.377007,-2.16842
Bramhall Queensgate Tennis Club,"Oakfield Close, Queensgate Bramhall  United Kingdom",Stockport,SK7 1JT,53.353682,-2.161718
Bramhope Tennis Club,Old Lane Bramhope  United Kingdom,Leeds,LS16 9AZ,53.885995,-1.629151
Bramley Park,Westover Road Bramley  United Kingdom,Leeds,LS13 3PG,53.812587,-1.633549
Brampton Lawn Tennis Club,Prothero Gardens  United Kingdom,London,NW4 3SJ,51.585968,-0.227868
Branfil Primary School,"Cedar Avenue , UPMINSTER United Kingdom",London,RM14 2LW,51.550963,0.237123
Breadsall Tennis Club,"Brookside Road, Breadsall  United Kingdom",Derby,DE21 5LF,52.952824,-1.448674
Bredbury Park,Bredbury  United Kingdom,Stockport,SK6 2AA,53.423636,-2.109434
Bredbury Recreation Ground,"Road East Bredbury,    United Kingdom",Stockport,SK6 2AA,53.423636,-2.109434
Breedon on the Hill Tennis Club,"Breedon school and Community Centre, Main Street  United Kingdom",Derby,DE73 8AN,52.801979,-1.398366
Brent Knoll and Mark Tennis Club,Brent Street HIGHBRIDGE United Kingdom,Cardiff,TA9 4EQ,51.249963,-2.954951
Brent Lea,BRENTFORD United Kingdom,London,TW8 8JD,51.481216,-0.314083
Brentham Lawn Tennis Club,"38a Meadvale Rd, Ealing  United Kingdom",London,W5 1NP,51.528901,-0.308299
Brentwood Hard Court,"Childerditch Lane, Little Warley BRENTWOOD United Kingdom",London,CM13 3FD,51.594142,0.313473
Brentwood LTC,Brentwood Rd  United Kingdom,Sheffield,S11 9BU,53.357513,-1.496327
Brewood Tennis Club,"The Playing Fields, Engleton Lane STAFFORD United Kingdom",Birmingham,ST19 9DZ,52.678806,-2.17166
Brickfields Sports Centre,"Madden Road ,  United Kingdom",Plymouth,PL1 4NE,50.371132,-4.172272
Bridgend Lawn Tennis Club,"Church Road, Off Merthyr Mawr Road BRIDGEND United Kingdom",Cardiff,CF31 3AZ,51.501909,-3.581385
Bridgford Park,Central Avenue  United Kingdom,Nottingham,NG2 6AT,52.933676,-1.127226
Brighouse Pool & Fitness Centre,Woodvale Road Brighouse United Kingdom,Leeds,HD6 4AS,53.709548,-1.781049
Brighouse Pool and Fitness Centre Tennis Courts,Woodvale Rd Brighouse HALIFAX United Kingdom,Leeds,HD6 4AS,53.709548,-1.781049
Brighstone Lawn Tennis Club Ltd,"Recreation Ground, Off New Rd Brighstone BRIGHSTONE United Kingdom",Southampton,PO30 4BQ,50.642552,-1.398503
Brighton Sand Court,Sand Court Kings Road  United Kingdom,Brighton,BN1 2FN,50.821025,-0.148356
Brigshaw Lane Recreation Ground (Kippax),"Brigshaw Lane Recreation Ground, 197 Brigshaw Ln Kippax  United Kingdom",Leeds,LS25 7LD,53.764018,-1.374918
Bristol Central Tennis Club,"Central Tennis Club Happy Lane, off Derby Road St. Andrews  United Kingdom",Bristol,BS7 9AQ,51.474755,-2.58566
Britannia Club,"Bank of England, Langston Road , LOUGHTON United Kingdom",London,IG10 3TN,51.648233,0.089635
Britannia Park,"Rowley Village, Rowley ROWLEY REGIS United Kingdom",Birmingham,B65 9AT,52.48139,-2.042711
Britannic Lawn Tennis Club,"Sydenham High School Sports Ground, Worsley Bridge Road BECKENHAM United Kingdom",London,BR3 1RL,51.419304,-0.027257
British Airways Tennis Club,"British Airways Concorde Club, Crane Lodge Road HOUNSLOW United Kingdom",London,TW5 9PQ,51.488081,-0.40299
Broadhurst Park,St Mary's Road  United Kingdom,Manchester,M40 0FG,53.519466,-2.174248
Broadland Sports Club,"Main Road, Fleggburgh GREAT YARMOUTH United Kingdom",Norwich,NR29 3AE,52.665552,1.631946
Broadlands Academy,"St. Francis Road, Keynsham ,  United Kingdom",Bristol,BS31 2DY,51.416855,-2.508947
Brockenhurst Tennis Club,"Brockenhurst College, Lyndhurst Road , BROCKENHURST United Kingdom",Southampton,SO42 7ZE,50.821457,-1.569932
Brockwell Park,Norwood Road  United Kingdom,London,SE24 9BJ,51.446386,-0.106047
Brodie Park,"10 Braid's Rd, Paisley PAISLEY United Kingdom",Glasgow,PA2 6JJ,55.831069,-4.423893
Bromley Lawn Tennis & Squash Club,Sandford Road BROMLEY United Kingdom,London,BR2 9AN,51.395358,0.017569
Bromley Sports Club,98 Plaistow Lane BROMLEY United Kingdom,London,BR1 3AS,51.407533,0.031175
Bromley Tennis Centre,"at Newstead, Avebury Road ORPINGTON United Kingdom",London,BR6 9SA,51.36678,0.074196
Bromley Tennis Centre at Newstead,AVEBURY RD ORPINGTON United Kingdom,London,BR6 9SA,51.36678,0.074196
Bromley Wendover Lawn Tennis Club,"Bromley Wendover LTC, Glanville Road BROMLEY United Kingdom",London,BR2 9LW,51.398375,0.026169
Brondesbury Sports Club,5A Harman Drive  United Kingdom,London,NW2 2EB,51.558618,-0.206933
Bronwydd Park,"High street, Porth PORTH United Kingdom",Cardiff,CF39 9DL,51.61117,-3.410291
Brook Green Tennis,Brook Green  United Kingdom,London,W6 7BD,51.497056,-0.221193
BROOK TENNIS CLUB,"14 Aynhoe Mansions, Aynhoe Road Brook Green  United Kingdom",London,W14 0QB,51.495892,-0.217349
Brookdale Park,"Droylsden Road, Newton Heath  United Kingdom",Manchester,M40 1PH,53.500108,-2.172269
Brooke & District Tennis Club,Road  United Kingdom,Norwich,NR15 1AB,52.543135,1.367832
Brooklands Sports Club,"C/O , The Pavilion George's Road SALE United Kingdom",Manchester,M33 3NL,53.415468,-2.318514
Brookmans Park Tennis Club,"Golf Club Road, Brookmans Park HATFIELD United Kingdom",London,AL9 7AX,51.728124,-0.186986
Brookside LTC,Orchard Street CHESTER LE STREET United Kingdom,Newcastle,DH3 1PE,54.897538,-1.575395
Broomfield Park,Aldermans Hill ENFIELD United Kingdom,London,N13 4HR,51.616946,-0.119771
Broomhill Lawn Tennis and Squash Club,"399 Crow Road, Broomhill  United Kingdom",Glasgow,G11 7DZ,55.879718,-4.325236
Brownmoor Park Lawn Tennis Club,"Brownmoor Park, 26 Hapsford Road Litherland  United Kingdom",Liverpool,L21 3TD,53.465715,-3.007944
Browston Tennis Club,"4 Browston Green, Browston , GREAT YARMOUTH United Kingdom",Norwich,NR31 9DW,52.55694,1.685502
Broxbourne Sports Club,Mill Lane Close BROXBOURNE United Kingdom,London,EN10 7BA,51.743728,-0.018907
Broxburn Community Tennis Courts,Church Street BROXBURN Scotland,Edinburgh,EH52 5EL,55.93561,-3.467522
Bruce Castle,"Park, Lordship Lane  United Kingdom",London,N17 8NS,51.598846,-0.071685
Brucehaven LTC,"Dunfermline Road, Limekilns DUNFERMLINE United Kingdom",Edinburgh,KY11 3JS,56.035475,-3.476029
Brune Park Community College Tennis Club,"Brune Park Community College, Military Road GOSPORT United Kingdom",Southampton,PO12 3BU,50.810207,-1.157579
Brunel University,Kingston Lane UXBRIDGE United Kingdom,London,UB8 3PH,51.53284,-0.472836
Brunswick Park,"Rd, Wednesbury WEDNESBURY United Kingdom",Birmingham,WS10 9QR,52.560015,-2.004849
Brunswick Park (Southwark),St Giles Rd  United Kingdom,London,SE5 7RH,51.474836,-0.085357
brunswick primary school,somerhill road HOVE United Kingdom,Brighton,BN3 1RQ,50.830546,-0.160092
Buckden Tennis Club,"Burberry Road , ST. NEOTS United Kingdom",Cambridge,PE19 5UY,52.292715,-0.246388
Buckfastleigh Tennis Courts,Ducksponds Rd BUCKFASTLEIGH United Kingdom,Plymouth,TQ11 0NL,50.478557,-3.785458
Buckhurst Hill Bowling And Lawn Tennis Club,72 Epping New Road BUCKHURST HILL United Kingdom,London,IG9 5TX,51.629336,0.029798
Buckingham Park,Upper Shoreham Road SHOREHAM-BY-SEA,Brighton,BN43 6BA,50.839999,-0.269584
Buckley Community Tennis Club,Mill Lane BUCKLEY United Kingdom,Liverpool,CH7 3HQ,53.171902,-3.083162
Buile Hill Park,Eccles Old Road SALFORD United Kingdom,Manchester,M6 8GL,53.490183,-2.304062
Bulwell Forest Recreation Ground,"Hucknall Road, Bulwell  United Kingdom",Nottingham,NG6 9LQ,53.001681,-1.180335
Bungay Tennis Club,"Maltings Meadow Sports Club, Pirnhow Street Ditchingham BUNGAY United Kingdom",Norwich,NR35 2RU,52.459328,1.456634
Buntingford Tennis Club,"Norfolk Road Playing Fields, Bowling Green Lane BUNTINGFORD United Kingdom",Cambridge,SG9 9AW,51.948799,-0.024243
Burgess Hill Tennis Club,"13 Park Close , BURGESS HILL United Kingdom",Brighton,RH15 8HL,50.960421,-0.138022
Burgess Park,44 Addington square  United Kingdom,London,SE5 7LA,51.481524,-0.092336
Burley Park,"Cardigan Lane ,  United Kingdom",Leeds,LS4 2LE,53.80943,-1.580546
Burnage Garden Village Tennis Club,South Avenue  United Kingdom,Manchester,M19 2NR,53.43495,-2.201161
Burnmoor Cricket Tennis & Football Club,"Chester Road, Burnmoor HOUGHTON LE SPRING United Kingdom",Newcastle,DH4 7EL,54.87629,-1.485713
Burnside TC,"Burnside Bowling Club, Burnside Road Rutherglen  United Kingdom",Glasgow,G73 4RB,55.814826,-4.199911
Burntwood Tennis Courts,"Burntwood Leisure Centre, Chasetown BURNTWOOD United Kingdom",Birmingham,WS7 3XH,52.678527,-1.933643
Bursledon Recreation Ground,"Long Lane, Bursledon  United Kingdom",Southampton,SO31 8BZ,50.888317,-1.312616
"Burton & Puddington Tennis, Gladstone Village Hall",The Village Burton NESTON United Kingdom,Liverpool,CH64 5TH,53.26182,-3.023366
Burton Joyce Lawn Tennis Club,Cragmoor Road  United Kingdom,Nottingham,NG14 5AR,52.98442,-1.045188
Burton Leonard Tennis Club,"Peter Lane, Burton Leonard , HARROGATE United Kingdom",Leeds,HG3 3RU,54.069051,-1.507205
Burton-on-the-Wolds Tennis Club,"c/o 17 Springfield Close, Burton-on-the-Wolds LOUGHBOROUGH United Kingdom",Nottingham,LE12 5AN,52.783755,-1.130744
Burwell Tennis Club,"The Causeway, Burwell  United Kingdom",Cambridge,CB25 0DU,52.27784,0.326299
Burwell Tennis Courts,The Weirs Drove  United Kingdom,Cambridge,CB25 0EZ,52.281373,0.321308
Busby Lawn Tennis Club,5 Carmunnock Road  United Kingdom,Glasgow,G76 8SY,55.78091,-4.260658
Bush Hill Park,Lincoln Road ENFIELD United Kingdom,London,EN1 1JX,51.646954,-0.070481
Bush Hill Park Bowls Tennis & Social Club,Abbey Road ENFIELD United Kingdom,London,EN1 2QP,51.643709,-0.072195
Bush Hill Park Bowls Tennis & Social Club Ltd,"Abbey Rd, Enfield  ENFIELD United Kingdom",London,EN1 2QP,51.643709,-0.072195
Bushey Academy,"The ,  Road , BUSHEY United Kingdom",London,WD23 3AA,51.646283,-0.369597
Bushey Grove Leisure Centre,Aldenham Road BUSHEY United Kingdom,London,WD23 2TD,51.655628,-0.373584
BushGreenTennis,"Blackthorn Farm, Bush Green Pulham Market DISS United Kingdom",Norwich,IP21 4YB,52.443917,1.245848
Bushy Park Tennis Club Teddington,"Bushy Park Tennis Section, Bushy Park Sports Club Pavilion Road TEDDINGTON United Kingdom",London,TW11 0EL,51.421274,-0.335577
Butterfly Tennis Club,"24A Camberwell Grove ,  United Kingdom",London,SE5 8RE,51.472086,-0.088194
Byron Recreation Ground,•  HARROW,London,HA3 7FE,51.593927,-0.329157
Caedrawnant Playing Fields,Mill Road MOUNTAIN ASH United Kingdom,Cardiff,CF45 4DG,51.688278,-3.389844
"Caedu Park, Ogmore Vale",1 Park Ave Ogmore Vale BRIDGEND United Kingdom,Cardiff,CF32 7DH,51.598201,-3.54375
Caerphilly Leisure Centre,"Virginia Park , CAERPHILLY United Kingdom",Cardiff,CF83 3SW,51.583705,-3.214386
Caerphilly Tennis Club,Virginia Park CAERPHILLY United Kingdom,Cardiff,CF83 3SW,51.583705,-3.214386
Calderdale Metropolitan Borough Council,Crossley Street Halifax HALIFAX United Kingdom,Leeds,HX1 1UJ,53.724371,-1.860703
Calderstones Park,Calderstones Mansion House Calderstones Rd,Liverpool,L18 3JB,53.381569,-2.894149
Caldicot Leisure Centre,"Mill Lane , CALDICOT United Kingdom",Cardiff,NP26 4BN,51.587639,-2.74944
Cale Green Park,"Heath Rd, Davenport,    United Kingdom",Stockport,SK2 6JN,53.392739,-2.154001
Callington Community College,Launceston Road CALLINGTON United Kingdom,Plymouth,PL17 7DR,50.50571,-4.311725
Callington Tennis Centre,"Callington Community College, Launceston Road , CALLINGTON United Kingdom",Plymouth,PL17 7DR,50.50571,-4.311725
Calow Primary School,"Calow C of E (Voluntary Controlled) Primary School, North Road Calow CHESTERFIELD United Kingdom",Sheffield,S44 5BD,53.236413,-1.389528
Calverley Park,"Carr Road, Calverley , PUDSEY United Kingdom",Leeds,LS28 5RH,53.830051,-1.691543
Cam and Dursley Tennis Club,"c/o Cam Sports Club, Everlands DURSLEY United Kingdom",Bristol,GL11 5NL,51.693631,-2.356533
Camber LTC,Dulwich Common  United Kingdom,London,SE21 7EX,51.443126,-0.070984
Cambourne Lawn Tennis Club,Back Lane Great Cambourne  United Kingdom,Cambridge,CB23 6FY,52.220296,-0.065054
Cambourne Tennis Club,"Back Lane, Great Cambourne Caxton  United Kingdom",Cambridge,CB23 6FY,52.220296,-0.065054
Cambridge Gardens,Gardens Clevedon Road TWICKENHAM United Kingdom,Cambridge,TW1 2TA,51.455397,-0.306527
Cambridge Lawn Tennis Club,"Lawn Tennis Club  Lawn Tennis Club, Stacey Lane Wilberforce Road  United Kingdom",Cambridge,CB3 0EQ,52.210003,0.099944
Cambridge Tennis Academy,"Tennis Academy Chesterton Sports Centre, Gilbert Road  United Kingdom",Cambridge,CB4 3NY,52.21793,0.120784
Cambridge Tennis Academy at The Leys,Tennis Academy at The Leys C/O The Leys Sports Centre Trumpington Road  United Kingdom,Cambridge,CB2 7AD,52.197014,0.121822
Cambridge Tennis Academy Comberton,"Tennis Academy Comberton  Tennis Academy Comberton, Comberton Sports and Arts Centre ,  United Kingdom",Cambridge,CB23 7DR,52.184599,0.018098
Cambridge Tennis Academy Netherhall,Tennis Academy Netherhall Queen Edith’s Way  United Kingdom,Cambridge,CB1 8NN,52.180795,0.164713
Cambuslang LTC,"Central Avenue, Cambuslang  United Kingdom",Glasgow,G72 8AY,55.81887,-4.1772
Camp Primary and Nursery School,"Camp Primary & Nursery School, Camp Road , ST. ALBANS United Kingdom",London,AL1 5PG,51.746968,-0.310392
Campden Hill Lawn Tennis Club,"9 Aubrey Walk, Notting Hill Gate  United Kingdom",London,W8 7JH,51.506181,-0.201586
Campion Tennis Club,1 Campion View Crosby  United Kingdom,Liverpool,L23 8AD,53.492737,-3.043402
Camvale Tennis Club,"Purnell Sports and Social Club,  Road Paulton  United Kingdom",Bristol,BS39 7NX,51.310256,-2.500365
Canford Park,"Canford Lane, Westbury-on-Trym  United Kingdom",Bristol,BS9 3PQ,51.492931,-2.628228
Cannock Lawn Tennis Club,"The Morris Ground, Four Crosses Hatherton CANNOCK United Kingdom",Birmingham,WS11 1RR,52.689388,-2.063745
Cannock Park,Park Road CANNOCK United Kingdom WS111NZ,Birmingham,WS11 1NZ,52.691117,-2.0329
Cannon Hill Park,2 Russell Road  United Kingdom,Birmingham,B13 8RD,52.450834,-1.899922
Cantell School,Violet Road  United Kingdom,Southampton,SO16 3GJ,50.940679,-1.396901
Canton Community Tennis Club,"21 Ovington Terrace ,  United Kingdom",Cardiff,CF5 1GF,51.488513,-3.21469
Cardiff Baseliners,Baseliners Whitchurch Lawn Tennis Club St Francis Road Whitchurch  United Kingdom,Cardiff,CF14 4EP,51.510017,-3.183502
Cardiff Central Youth Club,"Central Youth Club Central Youth Club, Ocean Way ,  United Kingdom",Cardiff,CF24 5HF,51.475435,-3.158201
Cardiff Lawn Tennis Club,"Lawn Tennis Club The Castle Grounds, North Road  United Kingdom",Cardiff,CF10 3EW,51.484147,-3.181695
Cardiff Metropolitan University Tennis Centre,Metropolitan University Tennis Centre  Metropolitan University - Tennis Centre Cyncoed Road  United Kingdom,Cardiff,CF23 6XD,51.510495,-3.161785
Cardiff Stars,Stars Tennis Squad Windsor LTC Larkwood Avenue Penarth United Kingdom,Cardiff,CF64 3JJ,51.430991,-3.180265
Cardross LTC,"Church Avenue, Cardross DUMBARTON United Kingdom",Glasgow,G82 5NS,55.962965,-4.655716
Cargilfield Prep School,"Cargilfield School, 45 Gamekeeper's Road ,  United Kingdom",Edinburgh,EH4 6HU,55.969694,-3.300112
Carlisle Park,Wensleydale Road HAMPTON United Kingdom,London,TW12 2LY,51.42213,-0.369619
CARLTON CENTURY,8 CHERRY HILLS WATFORD United Kingdom,London,WD19 6DH,51.619703,-0.381991
Carlton Century Tennis Club,8 Cherry Hills WATFORD United Kingdom,London,WD19 6DH,51.619703,-0.381991
Carlton Lawn Tennis Club,"24A Dunkirk Road, Birkdale SOUTHPORT United Kingdom",Liverpool,PR8 4RQ,53.624896,-3.020744
Carmel Sports Club,"16 A Dunbabin Road ,  United Kingdom",Liverpool,L15 6XN,53.393442,-2.903797
Carr Green Primary School,"Carr Green Cp School, Carr Green Lane , BRIGHOUSE United Kingdom",Leeds,HD6 3LT,53.686444,-1.793932
Carr Manor Community Tennis Club,"North East SSP, Carr Manor High School, Carr Manor Road  United Kingdom",Leeds,LS17 5DJ,53.835135,-1.550478
Carshalton LTC,"Carshalton Lawn Tennis Club, Beeches Avenue CARSHALTON United Kingdom",London,SM5 3LW,51.355091,-0.170568
Cassiobury LTC,"The Gardens, Cassiobury Estate WATFORD United Kingdom",London,WD17 3DT,51.66477,-0.412805
Cassiobury Park,Avenue WATFORD United Kingdom,London,WD18 7LG,51.65759,-0.422497
Castle Hill Community Tennis Courts,"Cherry Orchard Castle Hill, Ebbsfleet Valley Dartford United Kingdom",London,DA10 1AD,51.437037,0.304015
Castle Hill Tennis Club,Museum Street SAFFRON WALDEN United Kingdom,Cambridge,CB10 1BN,52.025243,0.239945
Castle Park,Park Lane FRODSHAM United Kingdom,Liverpool,WA6 6SB,53.292629,-2.730834
Caterham & Whyteleafe Tennis Club,"Manor Park The Avenue (off Burntwood Lane) (postcode will take you to Burntwood Lane, then turn into The Avenue and follow for 100m) WHYTELEAFE United Kingdom",London,CR3 6TB,51.295325,-0.074616
Catford Bridge,United Kingdom,London,SE6 4RN,51.446011,-0.027143
Catford Wanderers LTC,"Sports Club, Beckenham Hill Road Catford  United Kingdom",London,SE6 3NU,51.427185,-0.012518
Cator Park MUGA,Kidbrooke Park Road Kidbrooke Park Rd  United Kingdom,London,SE3 9BY,51.463296,0.025027
Catton Grove,Weston Road  United Kingdom,Norwich,NR3 3TP,52.655302,1.283485
Caunton Lawn Tennis Club,"Horsebridge Meadow, Maplebeck Road Caunton NEWARK United Kingdom",Nottingham,NG23 6AS,53.133882,-0.903511
Cavendish Park,Field End Road RUISLIP United Kingdom,London,HA4 9PG,51.573021,-0.39495
Cay College,"Aztec House, Ivy Arch Road Worthing United Kingdom",Brighton,BN14 8BX,50.81922,-0.37047
CDC Padel Venue,AELTC Church Road,London,SW19 5AG,51.436193,-0.215256
Cedar Lawns Tennis Club,Blanche Lane POTTERS BAR United Kingdom,London,EN6 3PA,51.692687,-0.233154
Cedars Lawn Tennis Club,6 Melrose Road  United Kingdom,London,SW18 1NE,51.452537,-0.203738
Cedars Recreation Ground,Green Street SUNBURY-ON-THAMES United Kingdom,London,TW16 6QQ,51.412445,-0.418194
Cedars Youth & Community Centre,Chicheley Road HARROW United Kingdom,London,HA3 6QH,51.607921,-0.352776
Centenary Park,135 Culver Grove STANMORE,London,HA7 2NW,51.59679,-0.303684
Central Park,"Wood Lane Sports Centre, Wood Lane DAGENHAM United Kingdom",London,RM10 7EU,51.55699,0.158794
"Central Park Dagenham, RM8 1JX","Central Park Dagenham,  Woodlane Woodlane Dagenham United Kingdom",London,RM8 1JX,51.563009,0.159656
Central Park Tennis,"Central Park ,  United Kingdom",Plymouth,PL2 3DG,50.386852,-4.153056
Centre Vale Park,Emwood Lane Todmorden HALIFAX United Kingdom,Manchester,OL14 7DF,53.71997,-2.109752
Chadderton Hall Park,Chadderton Hall Road OLDHAM United Kingdom,Manchester,OL9 0QB,53.551229,-2.15607
Chadwell Heath Lawn Tennis Club,"Hainault Road, Little Heath ROMFORD United Kingdom",London,RM6 5RX,51.584152,0.118594
Chalfont St Peter Tennis Club,Gravel Hill GERRARDS CROSS United Kingdom,London,SL9 9QX,51.61073,-0.557397
Chanctonbury Sports and Leisure,"Chanctonbury Leisure Centre, Spierbridge Road, Storrington , PULBOROUGH United Kingdom",Brighton,RH20 4PG,50.92103,-0.457023
Chandos Lawn Tennis Club,"120 East End Road ,  United Kingdom",London,N2 0RZ,51.592221,-0.180532
Chandos Recreation Ground,Camrose Avenue EDGWARE,London,HA8 6JD,51.605208,-0.285867
Chantry Tennis Club,Moseley Private Park Moseley  United Kingdom,Birmingham,B13 8DD,52.447102,-1.888396
Chapel Allerton Lawn Tennis and Squash Club,"Wensley Avenue ,  United Kingdom",Leeds,LS7 3QX,53.829303,-1.541378
Chapel Allerton Park,Pasture Avenue  United Kingdom,Leeds,LS7 4QN,53.832275,-1.533658
Chapel Community Tennis Club,"Long Lane, Alton CHESTERFIELD United Kingdom",Sheffield,S42 6AX,53.177812,-1.472025
Chapel Leisure Centre,Long Lane HIGH PEAK United Kingdom,Manchester,SK23 0TQ,53.318665,-1.922292
Chapmans Green,"Perth Road ,  United Kingdom",London,N22 5EA,51.600414,-0.097798
Charfield Memorial Hall & Playing Field,"Little  Lane, Charfield WOTTON-UNDER-EDGE United Kingdom",Bristol,GL12 8TG,51.628018,-2.404414
Charles Darwin School,"Jail Lane, Biggin Hill WESTERHAM United Kingdom",London,TN16 3AU,51.314945,0.045483
Charnwood Lawn Tennis Club,"Nanpantan Sports Ground, Nanpantan Road LOUGHBOROUGH United Kingdom",Nottingham,LE11 3YE,52.751831,-1.246469
Chase Meadow Community Centre,"Narrow Hall Meadow , WARWICK United Kingdom",Birmingham,CV34 6BT,52.268952,-1.608782
Chase Park,King George's Field Whickham  UPON TYNE United Kingdom,Newcastle,NE16 4EA,54.945544,-1.675535
Chatteris St Peters Tennis Club,St Peters Drive CHATTERIS United Kingdom,Cambridge,PE16 6BY,52.455685,0.053543
Cheadle (Kingsway) Sports Club Limited,225 Kingsway CHEADLE United Kingdom,Manchester,SK8 1LA,53.389434,-2.225201
Cheam Fields Club,30 Devon Road SUTTON United Kingdom,London,SM2 7PD,51.349588,-0.217847
Cheam Lawn Tennis Club,Peaches Close SUTTON United Kingdom,London,SM2 7BJ,51.354414,-0.217042
Cheddar Lawn Tennis Club,Sharpham Road CHEDDAR United Kingdom,Bristol,BS27 3DR,51.277797,-2.790407
Cheetham Park (Manchester),Cheetham Park () Elizabeth Street  United Kingdom,Manchester,M8 8BQ,53.500453,-2.242656
Chelmsford Square,United Kingdom,London,NW10 3AR,51.538612,-0.225413
Chelsfield Park LTC,37 Oxenden Wood Road Chelsfield Park ORPINGTON United Kingdom,London,BR6 6HP,51.353401,0.109813
Chepstow Athletic LTC,Chepstow Athletic Club Mathern Road Bulwark CHEPSTOW United Kingdom,Bristol,NP16 5JT,51.633577,-2.678561
Cheriton Tennis Club,"Cheriton Recreation Ground, Westfield Road Cheriton ALRESFORD United Kingdom",Southampton,SO24 0QH,51.051721,-1.172292
Cherry Grove Primary School,"40 Chapel Lane , CHESTER United Kingdom",Liverpool,CH3 5EN,53.190698,-2.864431
Cherry Hinton Hall Park,Walpole Rd  United Kingdom,Cambridge,CB1 3TJ,52.187784,0.162639
Cherry Tree Wood,"Summerlee Avenue ,  United Kingdom",London,N2 9QH,51.587322,-0.161052
Chertsey Recreational Ground,"Guildford Road, CHERTSEY United Kingdom",London,KT16 9BW,51.387777,-0.51432
Cheshire County Sports Club,Plas Newton Lane Chester CHESTER United Kingdom,Liverpool,CH2 1PR,53.213189,-2.868162
Cheslyn Hay & Cannock Chase Community Tennis Club,"Saredon Road, Cheslyn Hay ,  United Kingdom",Walsall,WS6 7JQ,52.661052,-2.043906
Chessington Sports Centre,"Chessington Community College, Garrison Lane , CHESSINGTON United Kingdom",London,KT9 2JS,51.356788,-0.309274
Chester & District Tennis League,"24 Park Drive, Whitby , ELLESMERE PORT United Kingdom",Liverpool,CH65 6QZ,53.270956,-2.906399
Chester Blue Coat CE Primary School,"Chester Bluecoat C of E Primary School, Walpole Street , CHESTER United Kingdom",Liverpool,CH1 4HG,53.196904,-2.896829
Chester Junior Tennis Academy,"4 Cottage Road, Westminster Park CHESTER United Kingdom",Liverpool,CH4 7QB,53.171684,-2.899983
Chester LTC,"Chester Lawn Tennis Club, Wrexham Road , CHESTER United Kingdom",Liverpool,CH4 7QP,53.176358,-2.895263
Chesterfield Lawn Tennis Club Ltd,"Chesterfield Lawn Tennis Club, Hawksley Avenue, Hawksley Avenue CHESTERFIELD United Kingdom",Sheffield,S40 4TW,53.241555,-1.43922
Chesterton Tennis Club,"Chesterton Community College, Gilbert Road ,  United Kingdom",Cambridge,CB4 3NY,52.21793,0.120784
Chestnuts Park,St Anns Rd  United Kingdom,London,N15 5AZ,51.58143,-0.087809
Chew Valley School Tennis,"Chew Valley Comprehensive School, Chew Lane, Chew Magna ,  United Kingdom",Bristol,BS40 8QB,51.358541,-2.622911
Chewton Glen Hotel & Spa,Christchurch Road NEW MILTON United Kingdom,Southampton,BH25 6QS,50.745521,-1.681437
Chigwell LTC,Grange Crescent CHIGWELL United Kingdom,London,IG7 5JD,51.610302,0.092124
Chilcompton Sports,Ground Chilcompton BRIDGWATER United Kingdom,Bristol,BA3 4EZ,51.264174,-2.495822
Childs Hill Park,"Granville Rd, Childs Hill  United Kingdom",London,NW2 2AT,51.56628,-0.199864
Chilwell Memorial Institute Lawn Tennis Club,129 High Rd Chilwell  United Kingdom,Nottingham,NG9 4AT,52.919821,-1.225578
Chilwell Olympia Sports Hall,"Chilwell Olympia, Bye Pass Road, Beeston ,  United Kingdom",Nottingham,NG9 5HR,52.911156,-1.233986
Chilworth Community Centre Tennis Court,Fowlers Walk Chilworth Old Village  United Kingdom,Southampton,SO16 7NN,50.966722,-1.42177
Chinbrook Meadows,Amblecote Rd  United Kingdom,London,SE12 9TN,51.430722,0.024076
Chingford Memorial Park,"Ainslie Wood Road, Chingford  United Kingdom",London,E4 9BT,51.613314,-0.016112
Chingford School of Tennis Club,"Rolls Sports Ground, Hickman Avenue Highams Park  United Kingdom",London,E4 9JG,51.609495,-0.004609
Chippenham Tennis Club,"Chippenham Sports Club,  Road CHIPPENHAM United Kingdom",Bristol,SN15 1NH,51.463876,-2.12711
Chipstead Hard Court Tennis Club Ltd,High Road COULSDON United Kingdom,London,CR5 3QN,51.300902,-0.166669
Chipstead Place Lawn Tennis Club,"Chipstead Lawn Tennis Club, The Old Garden SEVENOAKS United Kingdom",London,TN13 2RJ,51.282734,0.156994
Chislehurst Lawn Tennis Club,"Empress Drive , CHISLEHURST United Kingdom",London,BR7 5BG,51.41868,0.064318
Chiswick House Gardens,"Will to Win Tennis Centre, Chiswick House Grounds A4 Entrance, Chiswick  United Kingdom",London,W4 2RP,51.486097,-0.257355
Chiswick Poly Tennis,"University of Westminster Sports Ground, Cavendish Road Chiswick  United Kingdom",London,W4 3UH,51.478365,-0.268378
Chiswick Tennis Club,Burlington Lane  United Kingdom,London,W4 3EU,51.481084,-0.264315
Chorleywood House Grounds,Rickmansworth Road RICKMANSWORTH United Kingdom,London,WD3 5SL,51.662889,-0.508821
Chorleywood Lawn Tennis Club,"The Walled Garden, Lady Ela Drive RICKMANSWORTH United Kingdom",London,WD3 5SL,51.662889,-0.508821
Chorlton Park,Nell Lane  United Kingdom,Manchester,M21 7FZ,53.433175,-2.271746
Christ Church Lawn Tennis Club,c/o Leatherhead Leisure Centre Guildford Road LEATHERHEAD United Kingdom,London,KT22 9AS,51.291716,-0.332978
Christ's Pieces,Emmanuel Rd  United Kingdom,Cambridge,CB1 1JW,52.205519,0.126413
Christchurch Gardens (Beauchamp Square),Beauchamp Square Gardens Beauchamp Avenue LEAMINGTON SPA United Kingdom CV325PP,Birmingham,CV32 5PP,52.293442,-1.536722
Christchurch Tennis Club (Somerford venue),Grange Road CHRISTCHURCH United Kingdom,Southampton,BH23 4JD,50.739492,-1.737937
Christian Gallan's Lovetennis,"Cavendish Road ,  United Kingdom",London,W4 3UH,51.478365,-0.268378
Church Farm Court,Church Lane Woolverton BATH United Kingdom,Bristol,BA2 7QT,51.284423,-2.300729
Church Farm Tennis Court,Church Lane Woolverton BATH United Kingdom,Bristol,BA2 7QT,51.284423,-2.300729
Church House Gardens (Bromley),Off Ethelbert Rd BROMLEY United Kingdom,London,BR1 1JA,51.401897,0.014349
Church House Grounds (Worthing),Church House Grounds 7 Church Road WORTHING,Brighton,BN13 1EU,50.823853,-0.395923
Churchfield Gardens,"Eastcote Road, Ruislip , RUISLIP United Kingdom",London,HA4 8BE,51.577648,-0.424545
Churchfield Recreation Ground,"Church Road, Hanwell  United Kingdom",London,W7 3BQ,51.514346,-0.341943
Churchfields Recreation Ground,Churchfield Road WEYBRIDGE United Kingdom,London,KT13 8DB,51.371862,-0.45942
Churwell Park,Park Street Churwell  United Kingdom,Leeds,LS27 7RD,53.762482,-1.590161
Cisco Early Years Nursery and Pre-school,"Cisco Systems, 9-11 New Square , FELTHAM United Kingdom",London,TW14 8HA,51.447029,-0.446385
City Academy Tennis Club,"c/o City Academy, Russel Town Avenue St George  United Kingdom",Bristol,BS5 9JH,51.460195,-2.562169
City Livery Club,77 Roundwood Way BANSTEAD United Kingdom,London,SM7 1EJ,51.324598,-0.227341
Civic Centre,Churchfield Road ESHER United Kingdom,London,KT10 9SD,51.369919,-0.36189
Clapham Common,"Bowling Green Cafe,  West Side  United Kingdom",London,SW4 9AN,51.454515,-0.152749
Claremont LTC,Claremont Lawn Tennis Club Claremont Drive ALTRINCHAM United Kingdom,Manchester,WA14 5ND,53.404261,-2.346933
Claremont Tennis,"Club, Doveleys Road SALFORD United Kingdom",Manchester,M6 8GN,53.495134,-2.308498
Clarence Park - Bury,Walmersley Road BURY United Kingdom,Manchester,BL9 6NQ,53.605662,-2.29088
Clarksfield Tennis Club,"Easterdale, Off Westerdale Clarksfield OLDHAM United Kingdom",Manchester,OL4 1LN,53.54083,-2.085186
Clarkston Bowling & Tennis Club,"127 Eastwoodmains Road, Clarkston  United Kingdom",Glasgow,G76 7HD,55.791793,-4.281149
Claverdon Lawn Tennis Club,"Next to Dorothea Mitchell Hall, Claverdon WARWICK United Kingdom",Birmingham,CV35 8PH,52.281478,-1.709316
Clavering Tennis Club,"Clavering Jubilee Field, Clavering SAFFRON WALDEN United Kingdom",Cambridge,CB11 4QW,51.965805,0.14467
Claverley Tennis Club,Church Street  United Kingdom,Wolverhampton,WV5 7DS,52.539077,-2.305726
Claygate Lawn Tennis Club,Torrington Close ESHER United Kingdom,London,KT10 0SB,51.361592,-0.345266
Clayhall Park,Longwood Gardens Clayhall ILFORD United Kingdom,London,IG5 0EB,51.583061,0.060213
Cleckheaton Lawn Tennis Club,"Kirklands, Church Street CLECKHEATON United Kingdom",Leeds,BD19 3RW,53.724504,-1.708817
Cleeve Hill Tennis Club,"53-55 Cleeve Hill, Downend  United Kingdom",Bristol,BS16 6EU,51.491722,-2.50837
Cleeve Tennis Club,"King George V Memorial Field, Meeting House Lane  United Kingdom",Bristol,BS49 4PD,51.39107,-2.78244
Clevedon Lawn Tennis Club,Princes Road CLEVEDON United Kingdom,Cardiff,BS21 7SY,51.439066,-2.856118
Clifton College Indoor Tennis Centre,"Clifton College Sports Club, Abbots Leigh Road, Abbots Leigh  United Kingdom",Bristol,BS8 3QD,51.457338,-2.653559
Clifton Lawn Tennis Club,"Beaufort Road, Clifton ,  United Kingdom",Bristol,BS8 2JR,51.464395,-2.617313
Clifton Lodge Prep School,"8 Mattock Lane, Ealing  United Kingdom",London,W5 5BG,51.511456,-0.308946
Clifton Park,Clifton Lane ROTHERHAM United Kingdom,Sheffield,S65 3DJ,53.427485,-1.319106
Clifton Playing Fields,Farnborough Road  United Kingdom,Nottingham,NG11 8LJ,52.903272,-1.167132
Clinton French,"2 Monk Terrace, Vancouver Road ,  United Kingdom",London,SE23 2AP,51.439208,-0.034947
Clissold Park,3 Queen Elizabeths Walk  United Kingdom,London,N16 0BF,51.563977,-0.08678
Close Park,"Drumers Lane, Radcliffe ,  United Kingdom",Manchester,M26 2QE,53.567123,-2.307602
CLOWNE & CRESWELL FAMILY TENNIS CLUB,"Creswell Family Tennis Club, Markland Campus Bluebell Walk Creswell United Kingdom",Sheffield,S80 4HW,53.266705,-1.214052
CLUB AZ,"Mulberrys, Alderley Park MACCLESFIELD United Kingdom",Manchester,SK10 4TF,53.277552,-2.230069
Clubz4Kidz,6 Reeve Close RUGELEY United Kingdom,Birmingham,WS15 4TS,52.739936,-1.868544
Clubz4kidz [Mobile Courts],6 Reeve Close RUGELEY United Kingdom,Birmingham,WS15 4TS,52.739936,-1.868544
Coalshaw Green Park,Coalshaw Green Road OLDHAM United Kingdom,Manchester,OL9 8JW,53.529536,-2.145325
Coalville Park,42-46  Road COALVILLE United Kingdom,London,LE67 3JB,52.72297,-1.365783
Cobham Recreation Ground,Lushington Drive COBHAM United Kingdom,London,KT11 2AY,51.331982,-0.414345
Cobham Tennis Club,Old Surbitonians Memorial Ground Fairmile Lane COBHAM United Kingdom,London,KT11 2BU,51.339393,-0.395296
Cock Lane Recreation Ground,Cock Lane LEATHERHEAD United Kingdom,London,KT22 9UH,51.294626,-0.36143
Cockburn School,Gipsy Lane  United Kingdom,Leeds,LS11 5TT,53.759586,-1.558958
Cocks and Hens Cambridge Tennis,Cocks and Hens  Tennis Grantchester Road  United Kingdom,Cambridge,CB3 9ED,52.195908,0.100216
Coddington Community Centre,"Coddingham Community Centre, Beckingham Road, Coddington NEWARK United Kingdom",Nottingham,NG24 2TP,53.080457,-0.760564
Codsall Leisure Centre,"29 Elliotts Lane, Codsall ,  United Kingdom",Wolverhampton,WV8 1PG,52.628596,-2.191378
Colden Common Tennis Club,"Main Road , WINCHESTER United Kingdom",Southampton,SO21 1RP,51.000198,-1.316137
Coleridge Recreation Ground,Coleridge Rd  United Kingdom,Cambridge,CB1 3PR,52.189747,0.145279
Coles Green LTC,"Coles Green Road, (Between 16-18)  United Kingdom",London,NW2 7ER,51.563848,-0.230951
Coleshill Memorial Park Tennis Courts,"Parkfield Road, Coleshill ,  United Kingdom",Birmingham,B46 3LD,52.496975,-1.706753
Coleshill Tennis & Sports Club,"Glebe Farm, Off Maxstoke Lane Coleshill  United Kingdom",Birmingham,B46 3DG,52.496005,-1.703651
Colinton LTC,"26 Westgarth Avenue, Colinton  United Kingdom",Edinburgh,EH13 0BD,55.906118,-3.252811
Colliers Wood Recreation Groud,Colliers Wood Recreation Ground South Gardens MITCHAM United Kingdom,London,SW19 2NT,51.417616,-0.176213
Collingham Lawn Tennis Club,"Church Lane, Collingham Wetherby WETHERBY United Kingdom",Leeds,LS22 5AU,53.909551,-1.41035
Collingwood Tennis Club,"Priors Park, Prior's Terrace NORTH SHIELDS United Kingdom",Newcastle,NE30 4BE,55.015453,-1.423743
Colombo Centre,"Colombo Street Communityand Sports Centre, 34-68 Colombo Street  United Kingdom",London,SE1 8DP,51.505696,-0.105073
Colton Institute Tennis Club,"Colton Sports & Social Club, School Lane Colton  United Kingdom",Leeds,LS15 9AL,53.79203,-1.437849
Comberton Lawn Tennis Club,"Comberton Village College, West Street Comberton  United Kingdom",Cambridge,CB23 7DU,52.184748,0.010469
Compton and Shawford Lawn Tennis Club,"The Pavilion, Shepherds Lane Compton WINCHESTER United Kingdom",Southampton,SO21 2AB,51.0197,-1.339203
Comptons Tennis Club,"Leechpond Hill, Lower Beeding HORSHAM United Kingdom",Brighton,RH13 6NR,51.030016,-0.262132
Concord Park,Oaks Lane  United Kingdom,Sheffield,S5 0TA,53.425657,-1.441783
Coney Hall Recreation Ground,Church Drive WEST WICKHAM United Kingdom,London,BR4 9JJ,51.368182,-0.000303
Congresbury LTC,"King George V Memorial Playing Field, Stonewell Drive  United Kingdom",Bristol,BS49 5DW,51.366873,-2.808775
Conway Lawn Tennis Club,"Conway Tennis Club, 93 Conway Road Southgate  United Kingdom",London,N14 7BD,51.62236,-0.119244
Conway Road Recreation Ground,Conway Road Carlton  United Kingdom,Nottingham,NG4 2PU,52.967393,-1.078022
Cookley Lawn Tennis Club,"c/o Hanbury LTC, Hanbury Crescent (off Windsor Ave)  United Kingdom",Wolverhampton,WV4 4BW,52.568334,-2.156399
Coolhurst LTC,"Courtside, Coolhurst Road  United Kingdom",London,N8 8EY,51.576645,-0.131219
Coombe Wood Lawn Tennis Club,28 Galsworthy Road KINGSTON UPON THAMES United Kingdom,London,KT2 7BS,51.413803,-0.280281
Copmanthorpe Tennis Club,"Copmanthorpe Recreation Centre & Sports Club, Barons Crescen, Copmanthorpe  United Kingdom",York,YO23 3YR,53.914341,-1.139092
Copsewood Grange Golf Club,Allard Way  United Kingdom,Coventry,CV3 1JP,52.392341,-1.471266
Corbridge Tennis Club Ltd,Tynedale Park Station Road CORBRIDGE United Kingdom,Newcastle,NE45 5BA,54.968531,-2.015349
Corkscrew Hill LTC,Corkscrew Hill Tennis Club Pavilion WEST WICKHAM United Kingdom,London,BR4 9BA,51.370982,-0.010498
Cornwood and Lutton Tennis Club,"Grey Gables, Fore Street, Cornwood IVYBRIDGE United Kingdom",Plymouth,PL21 9PY,50.421012,-3.964055
Coronation Park,"Coronation Road, Crosby ,  United Kingdom",Liverpool,L23 5RD,53.489068,-3.030125
Coronation Park Greasby,"Greasby Road, Greasby WIRRAL United Kingdom",Liverpool,CH49 2PW,53.38103,-3.112291
Coronation Recreation Ground (Walton-on-thames),"Molesey Road, Hersham WALTON-ON-THAMES United Kingdom",London,KT12 4QY,51.371925,-0.39314
Corrigan Avenue Recreation Ground,Richland Avenue COULSDON United Kingdom,London,CR5 2QU,51.325716,-0.160556
Corstorphine LTC,65 Belgrave Road  United Kingdom,Edinburgh,EH12 6NH,55.943283,-3.278925
Cosham Park - Free to play,"Portsmouth Road, Cosham PORTSMOUTH United Kingdom",Southampton,PO6 2SH,50.841233,-1.067754
Costessey Junior School,"Three Mile Lane ,  United Kingdom",Norwich,NR5 0RR,52.645776,1.218391
Cotham Park Tennis Club,"80 Redland Road, Redland  United Kingdom",Bristol,BS6 6AG,51.468276,-2.59541
Cottenham Park,Melbury Gardens West Wimbledon  United Kingdom,London,SW20 0DJ,51.414674,-0.236055
Cottenham Tennis Club,Cottenham Sports Centre High Street  United Kingdom,Cambridge,CB24 8UA,52.28251,0.124804
Cottingley Manor Park,Cottingley Bingley BINGLEY United Kingdom,Leeds,BD16 1TQ,53.829567,-1.820321
Cougars Tennis Club,Portsmouth Road COBHAM United Kingdom,London,KT11 1BL,51.347947,-0.400039
Coulsdon CofE Primary School,"Coulsdon C of E School, Bradmore Green , COULSDON United Kingdom",London,CR5 1ED,51.308099,-0.123654
Coulsdon Memorial Park,"Marlpit Lane, Coulsden COULSDON United Kingdom",London,CR5 2HA,51.313989,-0.135468
County Hall LTC,Pegs Lane HERTFORD United Kingdom,London,SG13 8EH,51.79102,-0.084043
Court Recreation Ground,Pound Lane EPSOM United Kingdom,London,KT19 8SB,51.34011,-0.270017
CourtX,"Ltd, Eastern Parade SOUTHSEA United Kingdom",Southampton,PO4 9RF,50.781724,-1.068668
Coventry & N. Warks Tennis Club,& N. Warks Tennis Club Binley Road  United Kingdom,Coventry,CV3 1HB,52.406374,-1.475112
Coventry Arena,Arena Judds lane,Coventry,CV6 6GE,52.448773,-1.496283
Coventry City Tennis Club,"City Tennis Club c/o Greater Warwickshire Sport, The University of Warwick Westwood Campus  United Kingdom",Coventry,CV4 7AL,52.385826,-1.564804
Cowbridge Tennis,"Club, Cowbridge Athletic Ground (Off The Broadshoard) COWBRIDGE United Kingdom",Cardiff,CF71 7DA,51.463998,-3.453472
Cowplain Recreation Ground,Padnell Road WATERLOOVILLE United Kingdom,Southampton,PO8 8DU,50.89331,-1.012028
Cragg Vale Tennis Club,"behind Hinchcliffe Arms, Cragg Vale HEBDEN BRIDGE United Kingdom",Manchester,HX7 5TA,53.703258,-2.003826
Craig Park,Road  United Kingdom,London,N18 2HG,51.615381,-0.056309
Craiglockhart Tennis Centre,177 Colinton Road  United Kingdom,Edinburgh,EH14 1BZ,55.923858,-3.235699
Craigmillar Park Tennis & Padel Club (SCIO - SC051550),Craigmillar Park Tennis Club 20 Old Mill Lane  United Kingdom,Edinburgh,EH16 5TZ,55.924253,-3.164675
Cramlington Community Tennis Programme,"Alexandra Park, Ganton Avenue Southfield Green CRAMLINGTON United Kingdom",Newcastle,NE23 6EL,55.073972,-1.585467
Cranbrook Castle Lawn Tennis & Social Club,"Cranbrook Castle Tennis Club, St. Georges Road Ilford ILFORD United Kingdom",London,IG1 3PG,51.57086,0.05907
Cranleigh Lawn Tennis & Social Club,Rear Of 1 Cranleigh Road  United Kingdom,London,SW19 3LX,51.40453,-0.202298
Cranmore Sports Club,Tansey SHEPTON MALLET United Kingdom,Bristol,BA4 4QQ,51.187659,-2.491937
Cranston Park Lawn Tennis & Social Club,Between 12-14 Coniston Avenue UPMINSTER United Kingdom,London,RM14 3XR,51.548797,0.250229
Crawford Park,Seatonville Road Whitley Bay United Kingdom,Newcastle,NE25 9TR,55.036697,-1.469408
Creigiau LTC,CREIGIAU RECREATION FIELD HEOL PANT-Y-GORED  United Kingdom,Cardiff,CF15 9NT,51.524158,-3.323404
Crescent Lawn Tennis Club,49 Sydney Road Sidcup Sports Club SIDCUP United Kingdom,London,DA14 6RA,51.425641,0.091676
"Crescent Lawn Tennis Club, Bristol","Crescent Lawn Tennis Club,  Kensington Park Road, Brislington  United Kingdom",Bristol,BS4 3HU,51.435557,-2.558601
Cressington LTC,43-45 Salisbury Road  United Kingdom,Liverpool,L19 0PH,53.355987,-2.913131
Cricket Way Open Space,"Cricket Way , WEYBRIDGE United Kingdom",London,KT13 9LP,51.379344,-0.430271
Cricket Way Tennis Courts,Cricket Way WEYBRIDGE United Kingdom,London,KT13 9PL,51.373103,-0.439709
Cringle Park,Crossley Road  United Kingdom,Manchester,M19 1FS,53.437278,-2.196054
Cringleford Tennis Club,Oakfields Road Cringleford  United Kingdom,Norwich,NR4 6XF,52.602756,1.247835
Croftside Tennis Club,Meadow Way WILMSLOW United Kingdom,Manchester,SK9 6JL,53.314902,-2.251164
Cromarty Tennis & Sports Club,8 Bank Street CROMARTY United Kingdom,Inverness,IV11 8UY,57.681222,-4.034953
Crook Log Leisure Centre,Brampton Road BEXLEYHEATH United Kingdom,London,DA7 4HH,51.460249,0.124527
Cross Flatts Park,Cross Flatts Avenue  United Kingdom,Leeds,LS11 7BQ,53.771611,-1.556375
Cross Hills Tennis Club,Keighley Road Cross Hills KEIGHLEY United Kingdom,Leeds,BD20 7DA,53.901953,-1.988552
Cross In Hand Tennis Club,Hardy Roberts Playing Fields Cross in Hand HEATHFIELD United Kingdom,Brighton,TN21 0SN,50.973733,0.226176
Cross Sports Futures CIC,"Bidston Moss, Valley Road Birkenhead BIRKENHEAD United Kingdom",Liverpool,CH41 7EJ,53.407336,-3.070631
Crossbow Tennis Club,"The Park, Crossbow House School Lane  United Kingdom",Bristol,BS36 2DA,51.534408,-2.493217
Croston Tennis Club,"Westhead Road, Croston LEYLAND United Kingdom",Liverpool,PR26 9RR,53.662295,-2.778196
Crow Nest Park,Heckmondwike Road Dewsbury DEWSBURY United Kingdom,Leeds,WF13 2SG,53.687937,-1.647835
Crow Wood Park,Rochdale Rd Sowerby Bridge HALIFAX United Kingdom,Leeds,HX2 7NR,53.714945,-1.899341
Crown Meadow First School,"Road, Alvechurch ,  United Kingdom",Birmingham,B48 7TA,52.354659,-1.962244
Croxley Tennis Club,The Green RICKMANSWORTH United Kingdom,London,WD3 3HT,51.649518,-0.454549
Croydon High Sports Club,"Old Farleigh Road , SOUTH CROYDON United Kingdom",London,CR2 8YB,51.341245,-0.061681
Croydon Park Tennis Club,"154 Albert Road ,  United Kingdom",London,SE25 4JX,51.395629,-0.064128
Croydon Road Recreation Ground,Village Way BECKENHAM United Kingdom,London,BR3 3NJ,51.402483,-0.030238
Crumpsall Park,Ash Tree Road  United Kingdom,Manchester,M8 5SA,53.5159,-2.235777
Cuckfield Lawn Tennis Club,"Recreation Ground, High Street HAYWARDS HEATH United Kingdom",Brighton,RH17 5EL,51.007662,-0.141917
Cuddington Recreation Ground,Sandringham Rd WORCESTER PARK United Kingdom,London,KT4 8UJ,51.373487,-0.241446
Culcheth Tennis Club,"Charnock Road, Culcheth WARRINGTON United Kingdom",Manchester,WA3 5SH,53.452535,-2.514791
Cullercoates tennis club,Beverley gardens NORTH SHIELDS United Kingdom Ne304ns,Newcastle,NE30 4NS,55.031647,-1.433586
Cullercoats Lawn Tennis Club,"Beverley Gardens, Cullercoats NORTH SHIELDS United Kingdom",Newcastle,NE30 4NS,55.031647,-1.433586
Cults Tennis Club SCIO,"32 Abbotshall Place, Cults  United Kingdom",Aberdeen,AB15 9JB,57.119848,-2.172133
Culver Close Tennis Courts,Pound Lane -ON-AVON United Kingdom,Bradford,BA15 1FS,51.344218,-2.251746
Cumberland Lawn Tennis Club & Hampstead Cricket Club,25 Alvanley Gardens  United Kingdom,London,NW6 1JD,51.55159,-0.186741
Cumberland School,Oban Close  United Kingdom,London,E13 8SJ,51.520523,0.033044
Cumbernauld Tennis Club,"Broadwood Leisure Centre, Broadwood Stadium, 1 Ardgoil Drive Cumbernauld  United Kingdom",Glasgow,G68 9NE,55.945336,-4.037042
Curdworth Tennis Club,"King George VI Playing Fields, Kingsbury Road SUTTON COLDFIELD United Kingdom",Birmingham,B76 9HJ,52.532297,-1.737829
Cutnall Green Tennis Club,Addis Lane Cutnall Green DROITWICH United Kingdom,Birmingham,WR9 0NB,52.31281,-2.169679
Cwmbran LTC,Tre-Herbert Road Cwmbran United Kingdom NP442BZ,Cardiff,NP44 2BZ,51.668537,-3.001541
Cwmbran Park,Cocker Avenue Cocker Avenue Cwmbran CWMBRAN United Kingdom,Cardiff,NP44 7JJ,51.643101,-3.03159
Cyncoed Tennis Club,"University Of Wales Institute Tennis Centre, Cyncoed Campus Cyncoed Road  United Kingdom",Cardiff,CF23 6XD,51.510495,-3.161785
D'Abo Tennis Club,"The Recreation Ground, Bull Lane West Wratting  United Kingdom",Cambridge,CB21 5NP,52.146924,0.342478
Dacre Tennis Club,"Max Pullan Recreation Ground, Dacre Banks HARROGATE United Kingdom",Leeds,HG3 4JP,54.056875,-1.695045
Dakota Park,"Great Sankey , WARRINGTON United Kingdom",Manchester,WA5 8UG,53.408007,-2.630669
Dalgety Bay Primary School,"St Bridgets Brae, Dalgety Bay DUNFERMLINE United Kingdom",Edinburgh,KY11 9LT,56.038559,-3.349553
Dalgety Bay Squash & Tennis Club,Moray Way North DUNFERMLINE United Kingdom,Edinburgh,KY11 9UZ,56.038014,-3.358282
Dalkeith Lawn Tennis Club,5 Cemetery Road DALKEITH United Kingdom,Edinburgh,EH22 3DL,55.891375,-3.0769
Damoconstruction Sport Arena,Moorland Road  United Kingdom,Leeds,LS6 1AL,53.809383,-1.564784
Danson Park,Danson Road BEXLEYHEATH United Kingdom,London,DA6 8HL,51.455769,0.122605
Daresbury Tennis and Country Club,"Daresbury Hall, Daresbury Lane, Daresbury WARRINGTON United Kingdom",Manchester,WA4 4PB,53.334598,-2.55022
Darren Park,Frederick Street FERNDALE United Kingdom,Cardiff,CF43 4HR,51.660797,-3.449437
Dartmouth Park,"St Andrew's Avenue, Morley  United Kingdom",Leeds,LS27 0JT,53.740592,-1.613464
Darwen Tennis Club,Sunnyhurst Lane DARWEN United Kingdom,Manchester,BB3 1JT,53.699408,-2.487384
Darwin Green,Galton Road  United Kingdom,Cambridge,CB4 3NA,52.22386,0.106
Datchet Recreational Grounds Tennis Courts,"Green Lane , SLOUGH United Kingdom",London,SL3 9HR,51.482252,-0.574462
Davenant Tennis Club (Tennis Vision),"Chester Road , LOUGHTON United Kingdom",London,IG10 2LD,51.662582,0.08425
Davenport LTC,"Flowery Field, Woodsmoor  United Kingdom",Stockport,SK2 7DR,53.384703,-2.146545
David Lewis Recreation Ground,Lewis Ave  United Kingdom,Manchester,M9 7DF,53.523448,-2.197402
David Lloyd Acton Park,East Acton Lane  United Kingdom,London,W3 7HB,51.511947,-0.253457
David Lloyd Chigwell,Roding lane Chigwell United Kingdom,London,IG9 6BJ,51.627508,0.051159
David Lloyd Club Aberdeen,David Lloyd Club  Garthdee Road  United Kingdom,Aberdeen,AB10 7AY,57.120299,-2.124922
David Lloyd Club Acton Park,East Acton Lane  United Kingdom,London,W3 7HB,51.511947,-0.253457
David Lloyd Club Beckenham,Stanhope Grove BECKENHAM United Kingdom,London,BR3 3HL,51.395771,-0.0354
David Lloyd Club Birmingham,David Lloyd Club  Shady Lane  United Kingdom,Birmingham,B44 9ER,52.552454,-1.895827
David Lloyd Club Bolton,David Lloyd Club  Chorley Street  United Kingdom,Bolton,BL1 4AL,53.581392,-2.438704
David Lloyd Club Bristol Emersons Green,"David Lloyd Club  Emersons Green Willowherb Rd, Lyde Green, Emersons Green,  United Kingdom",Bristol,BS16 7PF,51.490621,-2.468402
David Lloyd Club Bristol Long Ashton,"David Lloyd Club  Long Ashton David Lloyd , Ashton Road  United Kingdom",Bristol,BS3 2HB,51.437697,-2.630979
David Lloyd Club Bristol Westbury,"David Lloyd Club  Westbury David Lloyd Westbury, Greystoke Ave  United Kingdom",Bristol,BS10 6AZ,51.498276,-2.613938
David Lloyd Club Bromsgrove,SLIDESLOW DRIVE BROMSGROVE United Kingdom,Birmingham,B60 1GJ,52.339316,-2.048972
David Lloyd Club Bushey,"Hartspring Lane, Bushey BUSHEY United Kingdom",London,WD23 2DL,51.66339,-0.36531
David Lloyd Club Cambridge,"David Lloyd Club  Coldhams Lane Business Park, Coldhams Lane  United Kingdom",Cambridge,CB1 3LH,52.195958,0.167528
David Lloyd Club Cardiff,David Lloyd Club  Ipswich Road  United Kingdom,Cardiff,CF23 9AQ,51.499248,-3.146011
David Lloyd Club Cheadle,"Cheadle Royal, Royal Crescent CHEADLE United Kingdom",Manchester,SK8 3FL,53.377663,-2.218433
David Lloyd Club Cheam,"David Lloyd Leisure, Ewell Road SUTTON United Kingdom",London,SM3 8DP,51.355337,-0.225107
David Lloyd Club Cheshire Oaks,"David Lloyd Cheshire Oaks, Stanney Lane Little Stanney ELLESMERE PORT United Kingdom",Liverpool,CH65 9JN,53.263725,-2.891403
David Lloyd Club Chigwell,"Roding Lane, Buckhurst Hill BUCKHURST HILL United Kingdom",London,IG9 6BJ,51.627508,0.051159
David Lloyd Club Coventry,"David Lloyd Club  Abbey Road, Whitley Common  United Kingdom",Coventry,CV3 4BJ,52.387755,-1.485235
David Lloyd Club Dartford,Darenth Road DARTFORD United Kingdom,London,DA1 1NJ,51.439088,0.225364
David Lloyd Club Derby,"David Lloyd Club  Pride Parkway, Riverside Road Pride Park  United Kingdom",Derby,DE24 8HY,52.916818,-1.453844
David Lloyd Club Dudley,Pensnett Road BRIERLEY HILL United Kingdom,Birmingham,DY5 3YP,52.487558,-2.127291
David Lloyd Club Eastbourne,Broadwater Way EASTBOURNE United Kingdom,Brighton,BN22 9PZ,50.791837,0.275373
David Lloyd Club Edinburgh,89B  Road EDINBURGH United Kingdom,Glasgow,EH12 8GZ,55.938976,-3.303198
David Lloyd Club Edinburgh Corstorphine,89B  Rd EDINBURGH,Glasgow,EH12 8GZ,55.938976,-3.303198
David Lloyd Club Edinburgh Shawfair,David Lloyd Club  Shawfair Old Dalkeith Road Danderhall Dalkeith Edinbrugh United Kingdom,Edinburgh,EH22 1FD,55.90773,-3.100115
David Lloyd Club Enfield,180 Carterhatch Lane ENFIELD United Kingdom,London,EN1 4LF,51.659681,-0.061352
David Lloyd Club Epsom,"Central Boiler House, Horton Lane , EPSOM United Kingdom",London,KT19 8PL,51.343788,-0.291517
David Lloyd Club Finchley,"Leisure Way, High Road  United Kingdom",London,N12 0QZ,51.605856,-0.174312
David Lloyd Club Gidea Park,"Squirrels Heath Lane, Gidea Park HORNCHURCH United Kingdom",London,RM11 2DY,51.58337,0.217912
David Lloyd Club Glasgow West End,"David Lloyd Club  West End 242 Netherton Road ,  United Kingdom",Glasgow,G13 1BJ,55.897794,-4.328013
David Lloyd Club Hamilton,Mote Hill HAMILTON United Kingdom,Glasgow,ML3 6BY,55.782297,-4.034821
David Lloyd Club Hampton,Staines road TWICKENHAM United Kingdom,London,TW2 5JD,51.438,-0.369486
David Lloyd Club Harrogate,"Oakdale Place, off Jenny Fields Drive HARROGATE United Kingdom",Leeds,HG1 2LA,54.000579,-1.55442
David Lloyd Club Hatfield,Mosquito Way HATFIELD United Kingdom,London,AL10 9AX,51.765164,-0.243889
David Lloyd Club Heston,Southall Lane HOUNSLOW United Kingdom,London,TW5 9PE,51.493504,-0.40038
David Lloyd Club Kidbrooke Village,"Kidbrooke Park Road, Corner of Weigall Road  United Kingdom",London,SE12 8HG,51.458976,0.020042
David Lloyd Club Knowsley,Arbour Lane  United Kingdom,Liverpool,L33 7ET,53.478411,-2.870191
David Lloyd Club Leeds,"David Lloyd Club  Tongue Lane, Moortown  United Kingdom",Leeds,LS6 4QW,53.843681,-1.550204
David Lloyd Club Lichfield,"Wall Island, Shenstone LICHFIELD United Kingdom",Birmingham,WS14 0QP,52.652649,-1.834805
David Lloyd Club Manchester North,"David Lloyd Club  North Heywood Old Road, Middleton ,  United Kingdom",Manchester,M24 4TH,53.55493,-2.234425
David Lloyd Club Manchester Trafford City,"David Lloyd Club  Trafford City Barton Embankment, Trafford Park  United Kingdom",Manchester,M17 8RH,53.470018,-2.360228
David Lloyd Club Newcastle,"David Lloyd Club  Castle Farm Road, South Gosforth  UPON TYNE United Kingdom",Newcastle,NE3 1SN,55.001528,-1.599799
David Lloyd Club Northwood,"David Lloyd Northwood, Ducks Hill Road , NORTHWOOD United Kingdom",London,HA6 2DR,51.612672,-0.443337
David Lloyd Club Norwich,David Lloyd Club  Drayton High Road  United Kingdom,Norwich,NR6 5DU,52.654238,1.264075
David Lloyd Club Nottingham,David Lloyd Club  Aspley Lane  United Kingdom,Nottingham,NG8 5AR,52.967108,-1.18556
David Lloyd Club Purley,"30 Hannibal Way , CROYDON United Kingdom",London,CR0 4RW,51.357258,-0.124434
David Lloyd Club Raynes Park,"Bushey Road, Raynes Park  United Kingdom",London,SW20 8TE,51.407673,-0.217905
David Lloyd Club Renfrew,Arkleston Road RENFREW United Kingdom,Glasgow,PA4 0RA,55.862953,-4.398886
David Lloyd Club Ringwood,"242 Christchurch Road , RINGWOOD United Kingdom",Southampton,BH24 3AS,50.83729,-1.783473
David Lloyd Club Rouken Glen,"2 Stewarton Road ,  United Kingdom",Glasgow,G46 7UY,55.798987,-4.323597
David Lloyd Club Sidcup,Baugh Road SIDCUP United Kingdom,London,DA14 5ED,51.420351,0.118345
David Lloyd Club Solihull Cranmore,"247 Cranmore Boulevard, Shirley SOLIHULL United Kingdom",Birmingham,B90 4ZL,52.39547,-1.808945
David Lloyd Club Southampton,"David Lloyd Club  Frogmore Lane, Nursling  United Kingdom",Southampton,SO16 0XS,50.936671,-1.463742
David Lloyd Club Southampton West End,"David Lloyd Club  West End Botley Road, West End ,  United Kingdom",Southampton,SO30 3XA,50.92567,-1.32443
David Lloyd Club Speke,"6 The Aerodrome, Speke Road Speke  United Kingdom",Liverpool,L24 8QD,53.349111,-2.881887
David Lloyd Club Sudbury Hill,Greenford Road GREENFORD United Kingdom,London,UB6 0UX,51.555826,-0.343739
David Lloyd Club Sunderland,"Camberwell Way, D International Business Park SUNDERLAND United Kingdom",Oxford,SR3 3XN,54.862421,-1.432562
David Lloyd Club Warrington,"Cromwell Avenue South, Great Sankey WARRINGTON United Kingdom",Manchester,WA5 1HH,53.387687,-2.624745
David Lloyd Club West Bridgford,"David Lloyd Leisure Club, Rugby Road West Bridgford  United Kingdom",Nottingham,NG2 7HX,52.921825,-1.139096
David Lloyd Club Wickwoods,Shaveswood Lane HASSOCKS United Kingdom,Brighton,BN6 9DY,50.919502,-0.222915
David Lloyd Club Worthing,Romany Road Worthing WORTHING United Kingdom,Brighton,BN13 3DL,50.826096,-0.429256
David LLoyd Gidea Park,Squirrels Heath Lane Gidea Park United Kingdom,London,RM11 2DY,51.58337,0.217912
David Lloyd Knowsley,Arbour Lane  United Kingdom,Liverpool,L33 7ET,53.478411,-2.870191
David Lloyd Leisure Cheadle,"Royal Cresent, Cheadle Royal Cheadle  United Kingdom",Stockport,SK8 3FL,53.377663,-2.218433
David Lloyd Notting Hill,1 Alfred Road  United Kingdom,London,W2 5EU,51.521199,-0.196309
David Lloyd Sudbury Hill,"Greenford Rd, Greenford GREENFORD United Kingdom UB60HX",London,UB6 0HX,51.556716,-0.336725
"David Lloyd, Northwood",Duck's Hill Rd Northwood United Kingdom,London,HA6 2DR,51.612672,-0.443337
Davyhulme Park,Crofts Bank Rd  United Kingdom,Manchester,M41 0UR,53.452876,-2.354346
DDDC,Causeway Lane MATLOCK United Kingdom,Sheffield,DE4 3SX,53.136567,-1.555011
De Gubernatis Academy,Old Malden lane Worcester park United Kingdom,London,KT4 7PU,51.378396,-0.261203
De Stafford School,Burntwood Lane CATERHAM United Kingdom,London,CR3 5YX,51.293204,-0.084602
Dean Tennis & Squash Club,24 Lennox Street  United Kingdom,Edinburgh,EH4 1QA,55.9557,-3.213331
Debdale Park,"1075 Hyde Road, Gorton ,  United Kingdom",Manchester,M18 7LJ,53.460116,-2.161068
Debden Tennis Club,"Debden Recreation Ground Mill Road, Debden SAFFRON WALDEN United Kingdom",Cambridge,CB11 3LB,51.979202,0.263407
Deer Park,Allendale Road Wingerworth CHESTERFIELD United Kingdom,Sheffield,S42 6XE,53.198719,-1.434419
Deer Park Secondary School,Sika Avenue Botley  United Kingdom SO302HT,Southampton,SO30 2HT,50.924673,-1.286867
Deer Park Sports Centre,Sika Avenue Botley  United Kingdom,Southampton,SO30 2HT,50.924673,-1.286867
Delamere Park,Openshaw  United Kingdom,Manchester,M11 1HL,53.472544,-2.15649
Denby Dale Tennis Club,"Bank Lane, (off Norman Road) Denby Dale HUDDERSFIELD United Kingdom",Leeds,HD8 8TH,53.571982,-1.657616
Denham Way Playing Fields,Denham Way RICKMANSWORTH United Kingdom,London,WD3 9SL,51.62307,-0.508697
Denmead Tennis Club,"King George Playing Fields, Ashling Park Road WATERLOOVILLE United Kingdom",Southampton,PO7 6EH,50.902749,-1.067236
Deptford Tennis Club,"c/o 16 Stanley Street, Deptford  United Kingdom",London,SE8 4BG,51.476335,-0.031407
Derby Arena,"Arena  Arena, Royal Way, Pride Park ,  United Kingdom",Derby,DE24 8JB,52.91273,-1.44652
Derbyshire Tennis Centre,"shire Tennis Centre Ashe Place, Vincent Street ,  United Kingdom",Derby,DE23 8BF,52.904189,-1.486489
Dereham LTC,"5 Cecil Road , DEREHAM United Kingdom",Norwich,NR20 4AN,52.68145,0.950136
Derwent Valley Tumbling Club,33A Medomsley Road Comsett CONSETT United Kingdom,Newcastle,DH8 5HE,54.853139,-1.830627
Devonshire Park Lawn Tennis Club,"Club House, Devonshire Park College Road EASTBOURNE United Kingdom",Brighton,BN21 4JJ,50.763122,0.28212
Diamond Jubilee Park,"Park Road Park Rd, Cheadle  CHEADLE United Kingdom",Manchester,SK8 2AN,53.393705,-2.204922
Diamond Tennis,High school Llandennis Road Cyncoed  United Kingdom,Cardiff,CF23 6WG,51.517812,-3.17461
Diamond Tennis Fairwater,"Fairwater recreational Park, Plas Mawr Road  United Kingdom",Cardiff,CF5 3JU,51.491935,-3.242539
Didsbury Lawn Tennis Club,"509 Parrswood Road, East Didsbury  United Kingdom",Manchester,M20 5GQ,53.404984,-2.2299
Dimension Tennis - Knightwood Leisure Centre,"Skys Wood Road, Valley Park, Chandler's Ford EASTLEIGH United Kingdom",Southampton,SO53 4SJ,50.98022,-1.402129
Dinas Powys LTC,St Andrews Road DINAS POWYS United Kingdom,Cardiff,CF64 4HB,51.432422,-3.232624
Dingle Close,United Kingdom,Bristol,BS9 2JP,51.486574,-2.646403
Disley Amalgamated Sports Club,"Jackson's Edge Road, Disley ,  United Kingdom",Stockport,SK23 7RS,53.332937,-1.99101
Diss Heywood Tennis Club,Walcot Road DISS United Kingdom,Norwich,IP22 4DH,52.379965,1.115102
Ditchling Lawn Tennis Club,"Playing Fields, Lewes Road HASSOCKS United Kingdom",Brighton,BN6 8TU,50.919441,-0.111373
Dollar Park,FALKIRK United Kingdom,Glasgow,FK1 5SQ,56.001987,-3.799252
Dolphin School,"Colstons Girls School, Cheltenham Road  United Kingdom",Bristol,BS6 5RD,51.467758,-2.591228
Donibristle Primary School,"Morlich Road, Dalgety Bay DUNFERMLINE United Kingdom",Edinburgh,KY11 9UE,56.030936,-3.358852
DONOT DELETE Venue One,45 tamworth road CROYDON United Kingdom,London,CR0 1XW,51.374819,-0.104721
DONOTDELETE Test Venue,test add sdd croydon,London,CR7 6AZ,51.391826,-0.113764
DONOTDELETE Venue Four,6 Eyrepoint Court  United Kingdom,Glasgow,G33 3GE,55.864145,-4.172238
Dore & Totley,"The Pavillion, 48 Devonshire Rd Dore  United Kingdom",Sheffield,S17 3NT,53.323325,-1.526095
Dorking & Leatherhead League,"Brumley, 21 School Lane Fetcham LEATHERHEAD United Kingdom",London,KT22 9JX,51.292209,-0.35261
Dowanhill LTC,27-33 Dowanside Road  United Kingdom,Glasgow,G12 9DW,55.87532,-4.298164
Down Lane Park,"Down Lane Recreation Ground, Park View Rd, Tottenham  United Kingdom",London,N17 9AU,51.593051,-0.062749
Downend & Frenchay Tennis Club,"Common Mead Lane, Hambrook  United Kingdom",Bristol,BS16 1QQ,51.504209,-2.531259
Downham Health,"7-9 Moorside Road, Downham BROMLEY United Kingdom",London,BR1 5EP,51.426849,0.009836
Downhills Park,26  Road  United Kingdom,London,N17 6PD,51.589543,-0.085144
Downs LTC,50 Holland Avenue SUTTON United Kingdom,London,SM2 6HU,51.350097,-0.203495
Downside School,"Stratton-on-the-Fosse , RADSTOCK United Kingdom",Bristol,BA3 4RJ,51.253899,-2.495195
Downswood LTC,"Downs Wood, Tattenham Corner EPSOM United Kingdom",London,KT18 5UJ,51.31414,-0.242309
Downton Leisure Centre,"Wick Lane, Downton SALISBURY United Kingdom",Southampton,SP5 3NF,50.993275,-1.760519
Downton Tennis Centre,Downton Leisure Centre Wick Lane SALISBURY United Kingdom,Southampton,SP5 3NF,50.993275,-1.760519
Downton Tennis Club,"Downton Leisure Centre, Wick Lane, Downton SALISBURY United Kingdom",Southampton,SP5 3NF,50.993275,-1.760519
Drakes Household,"76 Church Street, Langford Biggleswade United Kingdom",Cambridge,SG18 9QA,52.059977,-0.270744
Drayton Park - Free to play,"Lower Drayton Lane , PORTSMOUTH United Kingdom",Southampton,PO6 2HD,50.843102,-1.049679
Droitwich Spa Lawn Tennis Club,St Peter's Church Lane DROITWICH United Kingdom,Birmingham,WR9 7AN,52.26071,-2.143604
Droitwich Spa Lido,"Lido Park, Worcester Road DROITWICH United Kingdom",Birmingham,WR9 8AA,52.266283,-2.144106
Dronfield Tennis Club,"Cliffe Park, Callywhite Lane DRONFIELD United Kingdom",Sheffield,S18 2XP,53.299602,-1.459947
Drove Road Tennis Court,Drove Park BIGGLESWADE United Kingdom,Cambridge,SG18 0PE,52.090924,-0.254075
Drumchapel LTC,"90 Garscadden Road, Drumchapel  United Kingdom",Glasgow,G15 6QQ,55.90405,-4.363826
Drumchapel Park Tennis Courts,"Drumchapel Park, Howgate Avenue  United Kingdom",Glasgow,G15 8QN,55.912242,-4.375718
Drummond LTC,"Nutter Field, Nutter Lane  United Kingdom",London,E11 2JA,51.57942,0.034862
Duffield Squash and Tennis Club,"23 Town Street, Duffield BELPER United Kingdom",Nottingham,DE56 4EH,52.987042,-1.488085
Duke Street Park,"Duke Street, Formby ,  United Kingdom",Liverpool,L37 4AN,53.554049,-3.066859
Dukes Meadows Tennis,"Dukes Meadows Golf & Tennis, Dukes Meadow, Dan Mason Drive Chiswick  United Kingdom",London,W4 2SH,51.473573,-0.256349
Dullatur Lawn Tennis Club,Victoria Road Dullatur  United Kingdom,Glasgow,G68 0AW,55.968237,-4.00897
Dulwich Lawn Tennis Club,"Giant Arches Road, Burbage Road  United Kingdom",London,SE24 9HP,51.448532,-0.096388
Dulwich Park,"College Rd, Dulwich Village  United Kingdom",London,SE21 7EB,51.447428,-0.076113
Dumbarton Tennis Club,Dixon Avenue DUMBARTON United Kingdom,Glasgow,G82 4AT,55.941625,-4.578422
Dundonald Rec Tennis Club,"Dundonald Recreation Ground, Dundonald Road  United Kingdom",London,SW19 3QH,51.416766,-0.207988
Dunfermline Tennis & Bridge Club,Bothwell Street DUNFERMLINE United Kingdom,Edinburgh,KY11 3AF,56.065442,-3.453353
Dunham Forest Golf Club,Altrincham United Kingdom,Manchester,WA14 4TY,53.387364,-2.378895
Dunwood Park,"Small Brook Ln, Shaw OLDHAM United Kingdom",Manchester,OL2 7UQ,53.584544,-2.091724
Durants Park,Hertford Road ENFIELD United Kingdom,London,EN3 5AJ,51.65457,-0.048689
Durham Archery,"Clay Lane, Margery Lane Durham City DURHAM United Kingdom",Newcastle,DH1 4QL,54.770953,-1.587647
Durham City Tennis,"Durham Gilesgate Sports College, Sixth Form Centre Providence Row, The Sands DURHAM United Kingdom",Newcastle,DH1 1SG,54.780141,-1.573157
Durham Moor Tennis Club,16/17 Durham Moor Crescent Framwellgate Moor DURHAM United Kingdom,Newcastle,DH1 5AW,54.791607,-1.591186
Durham Tennis Academy,"Durham High School for Girls, Farewell Hall South Road DURHAM United Kingdom",Newcastle,DH1 3TB,54.756348,-1.587189
Durham University,"Sport & Wellbeing Park,  Maiden Castle DURHAM United Kingdom",Newcastle,DH1 3SE,54.767131,-1.558699
Durrington High School,"The Boulevard , WORTHING United Kingdom",Brighton,BN13 1JX,50.827719,-0.409621
Duxford Lawn Tennis Club,"Recreation Ground, Hunts Road, Duxford  United Kingdom",Cambridge,CB22 4RE,52.090991,0.1534
Dyke Park Tennis Club CIC,197 Dyke Park Road Dyke Park  United Kingdom,Brighton,BN1 5AS,50.837864,-0.153655
Dyrham Park Country Club,Galley Lane BARNET United Kingdom,London,EN5 4RA,51.667733,-0.23194
E4 Tennis Club,"British Legion Road ,  United Kingdom",London,E4 6DP,51.626595,0.014549
EA Tennis,"Recreation Road Sports Centre, Recreation Road ,  United Kingdom",Norwich,NR2 3PA,52.628526,1.269934
Eagley Tennis Club,"Sports Complex, Blackburn Road Dunscar  United Kingdom",Bolton,BL7 9EP,53.619596,-2.437709
Ealing Lawn Tennis Club,"Daniel Road ,  United Kingdom",London,W5 3RY,51.512596,-0.287113
Earlham Lawn Tennis Club,"Heigham Park, The Avenues  United Kingdom",Norwich,NR2 3PA,52.628526,1.269934
East Anglia Tennis & Squash Club,Lime Tree Road  United Kingdom,Norwich,NR2 2NQ,52.615084,1.279866
east anglia tennis squash club,lime tree road  United Kingdom nr22nq,Norwich,NR2 2NQ,52.615084,1.279866
East Bridgford Tennis Club,"Butts Field, College Street  United Kingdom",Nottingham,NG13 8LE,52.980767,-0.966149
East Brighton Park,East  Park Wilson Avenue  United Kingdom,Brighton,BN2 5PB,50.824219,-0.101416
East End Park,United Kingdom,Leeds,LS9 9NG,53.793188,-1.509255
East Ham Leisure Centre,"324 Barking Road ,  United Kingdom",London,E6 2RT,51.53331,0.058313
East Hoathly & Halland Tennis Club,"The Playing Fields,  Road LEWES United Kingdom",London,BN8 6QF,50.926634,0.164898
